country,state,city,station,last_update,latitude,longitude,pollutant_id,pollutant_min,pollutant_max,pollutant_avg
India,Arunachal_Pradesh,Naharlagun,"Naharlagun, Naharlagun - APSPCB","27-03-2026 08:00:00",27.103358,93.679645,PM10,29,152,78
India,Arunachal_Pradesh,Naharlagun,"Naharlagun, Naharlagun - APSPCB","27-03-2026 08:00:00",27.103358,93.679645,NO2,7,7,7
India,Arunachal_Pradesh,Naharlagun,"Naharlagun, Naharlagun - APSPCB","27-03-2026 08:00:00",27.103358,93.679645,NH3,1,1,1
India,Assam,Byrnihat,"Central Academy for SFS, Byrnihat - PCBA","27-03-2026 08:00:00",26.071318,91.87488,PM10,68,161,96
India,Assam,Byrnihat,"Central Academy for SFS, Byrnihat - PCBA","27-03-2026 08:00:00",26.071318,91.87488,SO2,18,32,31
India,Assam,Guwahati,"IITG, Guwahati - PCBA","27-03-2026 08:00:00",26.2028636,91.70046436,NH3,5,5,5
India,Assam,Guwahati,"IITG, Guwahati - PCBA","27-03-2026 08:00:00",26.2028636,91.70046436,SO2,31,35,33
India,Assam,Guwahati,"IITG, Guwahati - PCBA","27-03-2026 08:00:00",26.2028636,91.70046436,CO,6,19,15
India,Assam,Guwahati,"LGBI Airport, Guwahati - PCBA","27-03-2026 08:00:00",26.10887,91.589544,NH3,2,13,4
India,Assam,Guwahati,"LGBI Airport, Guwahati - PCBA","27-03-2026 08:00:00",26.10887,91.589544,CO,14,74,25
India,Andhra_Pradesh,Tirumala,"Toll Gate, Tirumala - APPCB","27-03-2026 08:00:00",13.67,79.35,PM10,39,119,75
India,Andhra_Pradesh,Tirumala,"Toll Gate, Tirumala - APPCB","27-03-2026 08:00:00",13.67,79.35,SO2,1,41,12
India,Andhra_Pradesh,Tirupati,"Vaikuntapuram, Tirupati - APPCB","27-03-2026 08:00:00",13.615387,79.409230,PM10,49,61,53
India,Andhra_Pradesh,Vijayawada,"HB Colony, Vijayawada - APPCB","27-03-2026 08:00:00",16.536107,80.594233,NO2,13,25,16
India,Andhra_Pradesh,Vijayawada,"HB Colony, Vijayawada - APPCB","27-03-2026 08:00:00",16.536107,80.594233,CO,17,44,30
India,Andhra_Pradesh,Vijayawada,"Rajiv Gandhi Park, Vijayawada - APPCB","27-03-2026 08:00:00",16.509717,80.612222,PM2.5,60,99,78
India,Andhra_Pradesh,Vijayawada,"Rajiv Gandhi Park, Vijayawada - APPCB","27-03-2026 08:00:00",16.509717,80.612222,PM10,58,94,75
India,Andhra_Pradesh,Vijayawada,"Rajiv Gandhi Park, Vijayawada - APPCB","27-03-2026 08:00:00",16.509717,80.612222,SO2,13,21,18
India,Andhra_Pradesh,Vijayawada,"Rajiv Nagar, Vijayawada - APPCB","27-03-2026 08:00:00",16.554731,80.649110,PM10,43,62,47
India,Assam,Guwahati,"Pan Bazaar, Guwahati - PCBA","27-03-2026 08:00:00",26.187500,91.744194,CO,20,73,37
India,Assam,Nagaon,"Christianpatty, Nagaon - PCBA","27-03-2026 08:00:00",26.349082,92.68449,PM2.5,19,56,33
India,Assam,Nagaon,"Christianpatty, Nagaon - PCBA","27-03-2026 08:00:00",26.349082,92.68449,CO,18,24,23
India,Assam,Nalbari,"Bata Chowk, Nalbari - PCBA","27-03-2026 08:00:00",26.446912,91.439057,PM2.5,22,58,41
India,Assam,Nalbari,"Bata Chowk, Nalbari - PCBA","27-03-2026 08:00:00",26.446912,91.439057,CO,20,22,21
India,Assam,Nalbari,"Bata Chowk, Nalbari - PCBA","27-03-2026 08:00:00",26.446912,91.439057,OZONE,15,17,16
India,Assam,Silchar,"Tarapur, Silchar - PCBA","27-03-2026 08:00:00",24.82827,92.79525,PM10,46,75,58
India,Assam,Silchar,"Tarapur, Silchar - PCBA","27-03-2026 08:00:00",24.82827,92.79525,NH3,1,1,1
India,Assam,Silchar,"Tarapur, Silchar - PCBA","27-03-2026 08:00:00",24.82827,92.79525,SO2,5,7,6
India,Assam,Silchar,"Tarapur, Silchar - PCBA","27-03-2026 08:00:00",24.82827,92.79525,CO,20,49,33
India,Andhra_Pradesh,Machilipatnam,"Srinivas Nagar Colony, Machilipatnam - APPCB","27-03-2026 08:00:00",16.186555,81.13219,NO2,7,35,18
India,Andhra_Pradesh,Nellore,"Ambedkar Nagar, Nellore - APPCB ","27-03-2026 08:00:00","14.438164 ","79.966814 ",CO,14,28,18
India,Andhra_Pradesh,Rajamahendravaram,"Anand Kala Kshetram, Rajamahendravaram - APPCB","27-03-2026 08:00:00",16.9872867,81.7363176,PM2.5,23,47,34
India,Andhra_Pradesh,Rajamahendravaram,"Anand Kala Kshetram, Rajamahendravaram - APPCB","27-03-2026 08:00:00",16.9872867,81.7363176,CO,20,36,24
India,Andhra_Pradesh,Rajamahendravaram,"Anand Kala Kshetram, Rajamahendravaram - APPCB","27-03-2026 08:00:00",16.9872867,81.7363176,OZONE,3,27,8
India,Bihar,Begusarai,"Lohiyanagar, Begusarai - BSPCB","27-03-2026 08:00:00",25.42742023,86.13886079,OZONE,37,52,43
India,Bihar,Bettiah,"Kamalnath Nagar, Bettiah - BSPCB","27-03-2026 08:00:00",26.80365,84.51954,PM2.5,13,68,38
India,Bihar,Bettiah,"Kamalnath Nagar, Bettiah - BSPCB","27-03-2026 08:00:00",26.80365,84.51954,CO,26,60,35
India,Bihar,Bhagalpur,"DM Office_Kachari Chowk, Bhagalpur - BSPCB","27-03-2026 08:00:00",25.251013,86.989001,PM10,59,149,97
India,Bihar,Bhagalpur,"DM Office_Kachari Chowk, Bhagalpur - BSPCB","27-03-2026 08:00:00",25.251013,86.989001,NO2,7,11,8
India,Bihar,Bhagalpur,"DM Office_Kachari Chowk, Bhagalpur - BSPCB","27-03-2026 08:00:00",25.251013,86.989001,OZONE,8,26,16
India,Bihar,Bhagalpur,"Mayaganj, Bhagalpur - BSPCB","27-03-2026 08:00:00",25.265194,87.012947,NO2,6,8,7
India,Bihar,"Bihar Sharif","D M Colony, Bihar Sharif - BSPCB","27-03-2026 08:00:00",25.204762,85.514960,PM10,10,69,32
India,Bihar,"Bihar Sharif","D M Colony, Bihar Sharif - BSPCB","27-03-2026 08:00:00",25.204762,85.514960,SO2,10,10,10
India,Bihar,Gaya,"Kareemganj, Gaya - BSPCB","27-03-2026 08:00:00",24.792403,84.992416,PM2.5,22,320,99
India,Bihar,Araria,"Kharahiya Basti, Araria - BSPCB","27-03-2026 08:00:00",26.146529,87.454184,PM10,41,121,78
India,Bihar,Araria,"Kharahiya Basti, Araria - BSPCB","27-03-2026 08:00:00",26.146529,87.454184,OZONE,10,11,10
India,Bihar,Arrah,"New DM Office, Arrah - BSPCB","27-03-2026 08:00:00",25.5626095,84.663264,PM2.5,15,133,72
India,Bihar,Arrah,"New DM Office, Arrah - BSPCB","27-03-2026 08:00:00",25.5626095,84.663264,NH3,1,2,2
India,Andhra_Pradesh,Eluru,"District Court, Eluru - APPCB","27-03-2026 08:00:00",16.711754,81.092095,CO,12,33,18
India,Andhra_Pradesh,Guntur,"Rajendra Nagar North, Guntur - APPCB","27-03-2026 08:00:00",16.316553,80.413302,SO2,7,15,13
India,Andhra_Pradesh,Guntur,"Rajendra Nagar North, Guntur - APPCB","27-03-2026 08:00:00",16.316553,80.413302,CO,8,27,12
India,"Andaman and Nicobar","Sri Vijaya Puram","Police Line, Sri Vijaya Puram - ANPCC","27-03-2026 08:00:00",11.654054,92.734055,PM2.5,NA,NA,NA
India,Andhra_Pradesh,Chittoor,"Gangineni Cheruvu, Chittoor - APPCB","27-03-2026 08:00:00",13.204880,79.097889,OZONE,26,50,37
India,Bihar,Kishanganj,"SDM Office_Khagra, Kishanganj - BSPCB","27-03-2026 08:00:00",26.0881305,87.93840336,SO2,5,10,8
India,Bihar,Manguraha,"Forest Rest House, Manguraha - BSPCB","27-03-2026 08:00:00",27.308328,84.531742,NH3,NA,NA,NA
India,Chandigarh,Chandigarh,"Sector-53, Chandigarh - CPCC","27-03-2026 08:00:00",30.719859,76.738637,SO2,5,6,6
India,Chandigarh,Chandigarh,"Sector-53, Chandigarh - CPCC","27-03-2026 08:00:00",30.719859,76.738637,CO,28,57,42
India,Chhattisgarh,Bhilai,"32Bungalows, Bhilai - CECB","27-03-2026 08:00:00",21.194815,81.314770,SO2,7,55,21
India,Chhattisgarh,Bhilai,"32Bungalows, Bhilai - CECB","27-03-2026 08:00:00",21.194815,81.314770,OZONE,3,84,9
India,Chhattisgarh,Bhilai,"Civic Center, Bhilai - Bhilai Steel Plant","27-03-2026 08:00:00",21.185571,81.343175,PM2.5,19,80,57
India,Chhattisgarh,Bhilai,"Civic Center, Bhilai - Bhilai Steel Plant","27-03-2026 08:00:00",21.185571,81.343175,PM10,30,102,68
India,Chhattisgarh,Bilaspur,"Mangala, Bilaspur - NTPC","27-03-2026 08:00:00",22.08815,82.13737,PM2.5,38,96,65
India,Chhattisgarh,Bilaspur,"Mangala, Bilaspur - NTPC","27-03-2026 08:00:00",22.08815,82.13737,NO2,17,145,30
India,Chhattisgarh,Bilaspur,"Mangala, Bilaspur - NTPC","27-03-2026 08:00:00",22.08815,82.13737,SO2,7,12,9
India,Chhattisgarh,Chhal,"Nawapara SECL Colony, Chhal - CECB","27-03-2026 08:00:00",22.118125,83.140608,SO2,12,83,31
India,Chhattisgarh,Chhal,"Nawapara SECL Colony, Chhal - CECB","27-03-2026 08:00:00",22.118125,83.140608,CO,18,92,67
India,Bihar,Patna,"DRM Office Danapur, Patna - BSPCB","27-03-2026 08:00:00",25.586562,85.043586,NO2,46,57,50
India,Bihar,Patna,"DRM Office Danapur, Patna - BSPCB","27-03-2026 08:00:00",25.586562,85.043586,OZONE,23,37,31
India,Bihar,Patna,"Govt. High School Shikarpur, Patna - BSPCB","27-03-2026 08:00:00",25.592539,85.227158,SO2,4,8,6
India,Bihar,Patna,"Govt. High School Shikarpur, Patna - BSPCB","27-03-2026 08:00:00",25.592539,85.227158,CO,2,124,23
India,Bihar,Patna,"Muradpur, Patna - BSPCB","27-03-2026 08:00:00",25.619651,85.147382,PM2.5,71,230,131
India,Bihar,Patna,"Muradpur, Patna - BSPCB","27-03-2026 08:00:00",25.619651,85.147382,NH3,3,7,6
India,Bihar,Patna,"Muradpur, Patna - BSPCB","27-03-2026 08:00:00",25.619651,85.147382,CO,2,169,11
India,Bihar,Patna,"Rajbansi Nagar, Patna - BSPCB","27-03-2026 08:00:00",25.599486,85.113666,NO2,10,11,11
India,Bihar,Patna,"Rajbansi Nagar, Patna - BSPCB","27-03-2026 08:00:00",25.599486,85.113666,NH3,1,1,1
India,Bihar,Patna,"Rajbansi Nagar, Patna - BSPCB","27-03-2026 08:00:00",25.599486,85.113666,CO,2,109,36
India,Bihar,Siwan,"Chitragupta Nagar, Siwan - BSPCB","27-03-2026 08:00:00",26.2271665,84.3570427,NO2,2,2,2
India,Bihar,Siwan,"Chitragupta Nagar, Siwan - BSPCB","27-03-2026 08:00:00",26.2271665,84.3570427,CO,22,95,55
India,Chandigarh,Chandigarh,"Sector 22, Chandigarh - CPCC","27-03-2026 08:00:00",30.735567,76.775714,SO2,4,20,11
India,Chandigarh,Chandigarh,"Sector 22, Chandigarh - CPCC","27-03-2026 08:00:00",30.735567,76.775714,OZONE,22,99,43
India,Chandigarh,Chandigarh,"Sector-25, Chandigarh - CPCC","27-03-2026 08:00:00",30.751462,76.762879,PM2.5,34,62,52
India,Chandigarh,Chandigarh,"Sector-25, Chandigarh - CPCC","27-03-2026 08:00:00",30.751462,76.762879,NH3,11,11,11
India,Chandigarh,Chandigarh,"Sector-53, Chandigarh - CPCC","27-03-2026 08:00:00",30.719859,76.738637,NO2,11,77,27
India,Bihar,Saharsa,"Police Line, Saharsa - BSPCB","27-03-2026 08:00:00",25.892357,86.590325,OZONE,1,26,12
India,Bihar,Samastipur,"DM Office_Kasipur, Samastipur - BSPCB","27-03-2026 08:00:00",25.859655,85.77944,OZONE,7,9,8
India,Bihar,Sasaram,"Dada Peer, Sasaram - BSPCB","27-03-2026 08:00:00",24.952822,84.002396,PM10,47,138,81
India,Bihar,Munger,"Town Hall, Munger - BSPCB","27-03-2026 08:00:00",25.376776,86.471523,NH3,2,3,3
India,Bihar,Muzaffarpur,"MIT-Daudpur Kothi, Muzaffarpur - BSPCB","27-03-2026 08:00:00",26.1403345,85.3650192,NH3,NA,NA,NA
India,Bihar,Muzaffarpur,"Muzaffarpur Collectorate, Muzaffarpur - BSPCB","27-03-2026 08:00:00",26.1209,85.3647,SO2,3,6,6
India,Chhattisgarh,Korba,"Rampur, Korba - CECB","27-03-2026 08:00:00",22.368195,82.746431,OZONE,2,15,4
India,Chhattisgarh,Korba,"Urja Nagar, Korba - CECB","27-03-2026 08:00:00",22.348441,82.549611,NH3,1,1,1
India,Chhattisgarh,Kunjemura,"OP Jindal School, Kunjemura - CECB","27-03-2026 08:00:00",22.126650,83.483212,OZONE,1,43,4
India,Bihar,Purnia,"Mariam Nagar, Purnia - BSPCB","27-03-2026 08:00:00",25.366336,87.117468,NH3,2,2,2
India,Bihar,Rajgir,"Dangi Tola, Rajgir - BSPCB","27-03-2026 08:00:00",25.03280,85.41948,NO2,12,15,14
India,Bihar,Motihari,"Gandak Colony, Motihari - BSPCB","27-03-2026 08:00:00",26.63086,84.90051,OZONE,3,4,3
India,Bihar,Sasaram,"Dada Peer, Sasaram - BSPCB","27-03-2026 08:00:00",24.952822,84.002396,SO2,2,5,4
India,Chhattisgarh,Raipur,"AIIMS, Raipur - CECB","27-03-2026 08:00:00",21.258815,81.578979,PM10,43,169,88
India,Chhattisgarh,Raipur,"AIIMS, Raipur - CECB","27-03-2026 08:00:00",21.258815,81.578979,CO,28,66,55
India,Chhattisgarh,Raipur,"Bhatagaon New ISBT, Raipur - CECB","27-03-2026 08:00:00",21.219665,81.630094,NO2,19,60,37
India,Chhattisgarh,Raipur,"Krishak Nagar, Raipur - CECB","27-03-2026 08:00:00",21.237755,81.705301,NH3,2,9,3
India,Chhattisgarh,Raipur,"Siltara Phase-II, Raipur - CECB","27-03-2026 08:00:00",21.371751,81.664929,NO2,14,46,30
India,Chhattisgarh,Raipur,"Siltara Phase-II, Raipur - CECB","27-03-2026 08:00:00",21.371751,81.664929,SO2,4,51,18
India,Chhattisgarh,Raipur,"Siltara Phase-II, Raipur - CECB","27-03-2026 08:00:00",21.371751,81.664929,CO,10,20,17
India,Chhattisgarh,Tumidih,"OP Jindal Industrial Park, Tumidih - CECB","27-03-2026 08:00:00",22.06631475,83.33820077,SO2,5,93,14
India,Delhi,Delhi,"Anand Vihar, Delhi - DPCC","27-03-2026 08:00:00",28.647622,77.3158090,PM10,40,463,215
India,Delhi,Delhi,"Anand Vihar, Delhi - DPCC","27-03-2026 08:00:00",28.647622,77.3158090,NH3,6,11,7
India,Delhi,Delhi,"Bawana, Delhi - DPCC","27-03-2026 08:00:00",28.776200,77.051074,NO2,11,61,26
India,Delhi,Delhi,"Bawana, Delhi - DPCC","27-03-2026 08:00:00",28.776200,77.051074,SO2,13,42,20
India,Delhi,Delhi,"Bawana, Delhi - DPCC","27-03-2026 08:00:00",28.776200,77.051074,CO,27,105,41
India,Delhi,Delhi,"Commonwealth Sports Complex, Delhi - DPCC","27-03-2026 08:00:00","28.615828 ","77.271992 ",PM2.5,40,208,107
India,Delhi,Delhi,"Commonwealth Sports Complex, Delhi - DPCC","27-03-2026 08:00:00","28.615828 ","77.271992 ",CO,90,111,101
India,Delhi,Delhi,"DTU, Delhi - CPCB","27-03-2026 08:00:00",28.7500499,77.1112615,PM10,52,161,92
India,Delhi,Delhi,"DTU, Delhi - CPCB","27-03-2026 08:00:00",28.7500499,77.1112615,NO2,26,49,44
India,Delhi,Delhi,"DTU, Delhi - CPCB","27-03-2026 08:00:00",28.7500499,77.1112615,SO2,24,38,32
India,Delhi,Delhi,"Dr. Karni Singh Shooting Range, Delhi - DPCC","27-03-2026 08:00:00",28.498571,77.264840,PM10,46,230,127
India,Delhi,Delhi,"Dwarka-Sector 8, Delhi - DPCC ","27-03-2026 08:00:00",28.5710274,77.0719006,PM10,112,418,202
India,Delhi,Delhi,"IGI Airport (T3), Delhi - IMD","27-03-2026 08:00:00",28.5627763,77.1180053,PM2.5,17,231,106
India,Delhi,Delhi,"IGI Airport (T3), Delhi - IMD","27-03-2026 08:00:00",28.5627763,77.1180053,PM10,25,249,145
India,Delhi,Delhi,"IGI Airport (T3), Delhi - IMD","27-03-2026 08:00:00",28.5627763,77.1180053,OZONE,20,116,22
India,Delhi,Delhi,"IHBAS, Dilshad Garden, Delhi - CPCB","27-03-2026 08:00:00",28.6811736,77.3025234,NO2,28,102,69
India,Delhi,Delhi,"ITO, Delhi - CPCB","27-03-2026 08:00:00",28.628624,77.241060,CO,22,66,41
India,Delhi,Delhi,"JNU, Delhi - DPCC","27-03-2026 08:00:00","28.540721 ","77.168544 ",SO2,17,20,18
India,Delhi,Delhi,"Jahangirpuri, Delhi - DPCC","27-03-2026 08:00:00",28.732820,77.170633,PM2.5,58,363,196
India,Delhi,Delhi,"Jahangirpuri, Delhi - DPCC","27-03-2026 08:00:00",28.732820,77.170633,NO2,37,129,77
India,Delhi,Delhi,"Mandir Marg, Delhi - DPCC","27-03-2026 08:00:00",28.636429,77.201067,OZONE,2,163,21
India,Delhi,Delhi,"Mundka, Delhi - DPCC","27-03-2026 08:00:00",28.684678,77.076574,PM10,104,490,200
India,Delhi,Delhi,"Mundka, Delhi - DPCC","27-03-2026 08:00:00",28.684678,77.076574,NO2,66,120,84
India,Delhi,Delhi,"Mundka, Delhi - DPCC","27-03-2026 08:00:00",28.684678,77.076574,OZONE,7,91,15
India,Delhi,Delhi,"Major Dhyan Chand National Stadium, Delhi - DPCC","27-03-2026 08:00:00",28.611281,77.237738,CO,48,90,75
India,Delhi,Delhi,"Mandir Marg, Delhi - DPCC","27-03-2026 08:00:00",28.636429,77.201067,PM2.5,127,308,203
India,Delhi,Delhi,"Mandir Marg, Delhi - DPCC","27-03-2026 08:00:00",28.636429,77.201067,CO,59,100,70
India,Delhi,Delhi,"IIT Delhi, Delhi - IITM","27-03-2026 08:00:00",28.542460,77.191651,PM2.5,25,123,75
India,Delhi,Delhi,"IIT Delhi, Delhi - IITM","27-03-2026 08:00:00",28.542460,77.191651,PM10,42,212,155
India,Delhi,Delhi,"Chandni Chowk, Delhi - IITM","27-03-2026 08:00:00",28.656756,77.227234,PM2.5,72,238,106
India,Delhi,Delhi,"Najafgarh, Delhi - DPCC","27-03-2026 08:00:00",28.570173,76.933762,NH3,12,14,13
India,Delhi,Delhi,"Najafgarh, Delhi - DPCC","27-03-2026 08:00:00",28.570173,76.933762,SO2,17,91,30
India,Delhi,Delhi,"Narela, Delhi - DPCC","27-03-2026 08:00:00",28.822836,77.101981,OZONE,10,84,14
India,Delhi,Delhi,"Nehru Nagar, Delhi - DPCC","27-03-2026 08:00:00",28.567890,77.250515,PM2.5,22,362,108
India,Delhi,Delhi,"Nehru Nagar, Delhi - DPCC","27-03-2026 08:00:00",28.567890,77.250515,NH3,5,11,8
India,Delhi,Delhi,"Nehru Nagar, Delhi - DPCC","27-03-2026 08:00:00",28.567890,77.250515,OZONE,3,226,16
India,Delhi,Delhi,"New Moti Bagh, Delhi - MHUA","27-03-2026 08:00:00",28.57834,77.18400,CO,20,57,29
India,Delhi,Delhi,"North Campus, DU, Delhi - IMD","27-03-2026 08:00:00",28.6573814,77.1585447,NO2,13,88,44
India,Delhi,Delhi,"North Campus, DU, Delhi - IMD","27-03-2026 08:00:00",28.6573814,77.1585447,CO,1,102,18
India,Delhi,Delhi,"Okhla Phase-2, Delhi - DPCC","27-03-2026 08:00:00",28.530785,77.271255,NO2,45,153,88
India,Gujarat,Ahmedabad,"SAC ISRO Satellite, Ahmedabad - IITM","27-03-2026 08:00:00",23.023389,72.515201,NH3,2,8,4
India,Gujarat,Ahmedabad,"SVPI Airport Hansol, Ahmedabad - IITM","27-03-2026 08:00:00",23.076793,72.627874,PM2.5,21,65,41
India,Gujarat,Ahmedabad,"SVPI Airport Hansol, Ahmedabad - IITM","27-03-2026 08:00:00",23.076793,72.627874,SO2,6,26,13
India,Gujarat,Ankleshwar,"GIDC, Ankleshwar - GPCB","27-03-2026 08:00:00",21.613267,73.010555,NH3,5,9,6
India,Gujarat,Ankleshwar,"GIDC, Ankleshwar - GPCB","27-03-2026 08:00:00",21.613267,73.010555,CO,40,66,56
India,Gujarat,Gandhinagar,"GIFT City, Gandhinagar - IITM","27-03-2026 08:00:00",23.163798,72.677768,PM10,91,164,123
India,Gujarat,Gandhinagar,"GIFT City, Gandhinagar - IITM","27-03-2026 08:00:00",23.163798,72.677768,SO2,12,24,18
India,Gujarat,Gandhinagar,"IIPHG Lekawada, Gandhinagar - IITM","27-03-2026 08:00:00",23.243639,72.68994,NO2,8,28,16
India,Gujarat,Gandhinagar,"IIPHG Lekawada, Gandhinagar - IITM","27-03-2026 08:00:00",23.243639,72.68994,NH3,5,10,7
India,Delhi,Delhi,"Wazirpur, Delhi - DPCC","27-03-2026 08:00:00",28.699793,77.165453,SO2,16,43,28
India,Gujarat,Ahmedabad,"Chandkheda, Ahmedabad - IITM","27-03-2026 08:00:00",23.107969,72.574648,NH3,2,7,4
India,Gujarat,Ahmedabad,"Chandkheda, Ahmedabad - IITM","27-03-2026 08:00:00",23.107969,72.574648,CO,10,51,15
India,Gujarat,Ahmedabad,"Gyaspur, Ahmedabad - IITM","27-03-2026 08:00:00",22.977134,72.553024,NO2,39,152,79
India,Gujarat,Ahmedabad,"Maninagar, Ahmedabad - GPCB","27-03-2026 08:00:00",23.002657,72.591912,SO2,32,70,59
India,Gujarat,Ahmedabad,"Raikhad, Ahmedabad - IITM","27-03-2026 08:00:00",23.020509,72.579261,CO,2,105,59
India,Delhi,Delhi,"Okhla Phase-2, Delhi - DPCC","27-03-2026 08:00:00",28.530785,77.271255,CO,6,84,42
India,Delhi,Delhi,"Pusa, Delhi - DPCC","27-03-2026 08:00:00",28.639652,77.146275,NO2,48,125,85
India,Delhi,Delhi,"Pusa, Delhi - DPCC","27-03-2026 08:00:00",28.639652,77.146275,SO2,17,45,27
India,Delhi,Delhi,"R K Puram, Delhi - DPCC","27-03-2026 08:00:00",28.563262,77.186937,PM10,62,261,143
India,Delhi,Delhi,"Sonia Vihar, Delhi - DPCC","27-03-2026 08:00:00",28.710508,77.249485,PM10,94,293,156
India,Delhi,Delhi,"Sonia Vihar, Delhi - DPCC","27-03-2026 08:00:00",28.710508,77.249485,NO2,21,85,35
India,Delhi,Delhi,"Sri Aurobindo Marg, Delhi - DPCC","27-03-2026 08:00:00",28.531346,77.190156,SO2,3,7,5
India,Delhi,Delhi,"NSUT Jaffarpur, Delhi - DPCC","27-03-2026 08:00:00","28.594004 ","76.909423 ",CO,123,135,131
India,Delhi,Delhi,"Najafgarh, Delhi - DPCC","27-03-2026 08:00:00",28.570173,76.933762,NO2,20,73,50
India,Gujarat,Ahmedabad,"Rakhial, Ahmedabad - IITM","27-03-2026 08:00:00",23.016834,72.625775,SO2,7,119,49
India,Gujarat,Ahmedabad,"SAC ISRO Bopal, Ahmedabad - IITM","27-03-2026 08:00:00",23.041137,72.456691,PM2.5,36,94,56
India,Delhi,Delhi,"Shadipur, Delhi - CPCB","27-03-2026 08:00:00",28.6514781,77.1473105,PM2.5,93,300,173
India,Delhi,Delhi,"Shadipur, Delhi - CPCB","27-03-2026 08:00:00",28.6514781,77.1473105,PM10,80,251,138
India,Delhi,Delhi,"Vivek Vihar, Delhi - DPCC","27-03-2026 08:00:00",28.672342,77.315260,PM2.5,55,320,115
India,Gujarat,Gandhinagar,"Sector-10, Gandhinagar - GPCB","27-03-2026 08:00:00",23.221714,72.654328,PM10,48,109,78
India,Gujarat,Gandhinagar,"Sector-10, Gandhinagar - GPCB","27-03-2026 08:00:00",23.221714,72.654328,NO2,23,44,30
India,Gujarat,Mehsana,"Sadanand Nagar, Mehsana - Nexteng Enviro","27-03-2026 08:00:00",23.593150,72.372792,CO,52,63,56
India,Gujarat,Rajkot,"Mavdi, Rajkot - Nexteng Enviro ","27-03-2026 08:00:00",22.248853,70.776774,PM2.5,23,161,57
India,Gujarat,Rajkot,"Mavdi, Rajkot - Nexteng Enviro ","27-03-2026 08:00:00",22.248853,70.776774,SO2,7,43,23
India,Gujarat,Rajkot,"Mavdi, Rajkot - Nexteng Enviro ","27-03-2026 08:00:00",22.248853,70.776774,OZONE,4,16,4
India,Gujarat,Surat,"Katargam, Surat - Nexteng Enviro","27-03-2026 08:00:00","21.217779 ","72.834787 ",PM2.5,31,149,82
India,Gujarat,Surat,"Katargam, Surat - Nexteng Enviro","27-03-2026 08:00:00","21.217779 ","72.834787 ",NH3,1,2,2
India,Gujarat,Surat,"Science Center, Surat - SMC","27-03-2026 08:00:00",21.170046,72.795405,PM2.5,39,146,63
India,Gujarat,Surat,"Science Center, Surat - SMC","27-03-2026 08:00:00",21.170046,72.795405,NO2,17,24,19
India,Gujarat,Vadodara,"Bapunagar, Vadodara - Nexteng Enviro","27-03-2026 08:00:00",22.320153,73.216285,OZONE,2,9,2
India,Gujarat,Vapi,"Phase-1 GIDC, Vapi - GPCB","27-03-2026 08:00:00",20.362421,72.918013,NH3,4,5,4
India,Haryana,Ambala,"Patti Mehar, Ambala - HSPCB","27-03-2026 08:00:00",30.379589,76.778328,NO2,8,12,10
India,Haryana,Ambala,"Patti Mehar, Ambala - HSPCB","27-03-2026 08:00:00",30.379589,76.778328,SO2,15,31,22
India,Haryana,Bahadurgarh,"Arya Nagar, Bahadurgarh - HSPCB","27-03-2026 08:00:00",28.6701,76.9254,PM2.5,13,500,212
India,Haryana,Bahadurgarh,"Arya Nagar, Bahadurgarh - HSPCB","27-03-2026 08:00:00",28.6701,76.9254,CO,46,50,48
India,Haryana,Ballabgarh,"Nathu Colony, Ballabgarh - HSPCB","27-03-2026 08:00:00",28.3419248,77.319699,NO2,19,21,20
India,Haryana,Karnal,"Sector-12, Karnal - HSPCB","27-03-2026 08:00:00",29.695300,77.002700,OZONE,21,57,24
India,Haryana,Kurukshetra,"Sector-7, Kurukshetra - HSPCB","27-03-2026 08:00:00",29.966942,76.875879,PM2.5,56,141,77
India,Haryana,Kurukshetra,"Sector-7, Kurukshetra - HSPCB","27-03-2026 08:00:00",29.966942,76.875879,PM10,82,127,98
India,Haryana,Mandikhera,"General Hospital, Mandikhera(Nuh) - HSPCB","27-03-2026 08:00:00",27.9002,76.9938,CO,20,77,40
India,Haryana,Manesar,"Sector-2 IMT, Manesar - HSPCB","27-03-2026 08:00:00",28.360699,76.936090,SO2,3,14,8
India,Haryana,Manesar,"Sector-2 IMT, Manesar - HSPCB","27-03-2026 08:00:00",28.360699,76.936090,CO,2,28,12
India,Haryana,Narnaul,"Shastri Nagar, Narnaul - HSPCB","27-03-2026 08:00:00",28.060249,76.113115,SO2,7,8,8
India,Haryana,"Charkhi Dadri","Mini Secretariat, Charkhi Dadri - HSPCB","27-03-2026 08:00:00",28.593883,76.270653,PM10,47,403,108
India,Haryana,Faridabad,"Sector 11, Faridabad - HSPCB","27-03-2026 08:00:00",28.376058,77.315741,CO,40,40,40
India,Haryana,Faridabad,"Sector 30, Faridabad - HSPCB","27-03-2026 08:00:00",28.4417,77.3217,NH3,10,12,11
India,Haryana,Faridabad,"Sector 30, Faridabad - HSPCB","27-03-2026 08:00:00",28.4417,77.3217,SO2,4,4,4
India,Haryana,Faridabad,"Sector 30, Faridabad - HSPCB","27-03-2026 08:00:00",28.4417,77.3217,CO,23,63,61
India,Haryana,Faridabad,"Sector 30, Faridabad - HSPCB","27-03-2026 08:00:00",28.4417,77.3217,OZONE,10,11,10
India,Haryana,Fatehabad,"Huda Sector, Fatehabad - HSPCB","27-03-2026 08:00:00",29.503664,75.467934,PM10,39,278,151
India,Haryana,Panchgaon,"Amity University, Panchgaon - IITM","27-03-2026 08:00:00",28.3153,76.9143,CO,19,46,30
India,Haryana,Panchkula,"Sector-6, Panchkula - HSPCB ","27-03-2026 08:00:00",30.7057778,76.8531805555555,NO2,23,25,24
India,Haryana,Panipat,"Sector-18, Panipat - HSPCB","27-03-2026 08:00:00",29.432304,76.972765,PM10,94,147,113
India,Haryana,Sirsa,"F-Block, Sirsa - HSPCB","27-03-2026 08:00:00",29.536400,75.015800,PM2.5,55,98,73
India,Haryana,Sirsa,"F-Block, Sirsa - HSPCB","27-03-2026 08:00:00",29.536400,75.015800,NH3,8,24,15
India,Haryana,Sirsa,"F-Block, Sirsa - HSPCB","27-03-2026 08:00:00",29.536400,75.015800,OZONE,9,66,21
India,Haryana,Sonipat,"Murthal, Sonipat - HSPCB","27-03-2026 08:00:00",29.027200,77.062100,NO2,12,13,12
India,Haryana,Sonipat,"Murthal, Sonipat - HSPCB","27-03-2026 08:00:00",29.027200,77.062100,OZONE,25,26,26
India,Haryana,Jind,"Police Lines, Jind - HSPCB","27-03-2026 08:00:00",29.307814,76.337619,PM10,44,96,65
India,Haryana,Kaithal,"Rishi Nagar, Kaithal - HSPCB","27-03-2026 08:00:00",29.8006,76.4155,PM2.5,38,132,61
India,Haryana,Kaithal,"Rishi Nagar, Kaithal - HSPCB","27-03-2026 08:00:00",29.8006,76.4155,PM10,47,128,72
India,Haryana,Kaithal,"Rishi Nagar, Kaithal - HSPCB","27-03-2026 08:00:00",29.8006,76.4155,OZONE,5,15,7
India,Haryana,Gurugram,"Sector-51, Gurugram - HSPCB","27-03-2026 08:00:00",28.4227,77.0667,OZONE,10,46,11
India,Haryana,Hisar,"Urban Estate-II, Hisar - HSPCB","27-03-2026 08:00:00",29.140560,75.744941,PM2.5,NA,NA,NA
India,Haryana,Hisar,"Urban Estate-II, Hisar - HSPCB","27-03-2026 08:00:00",29.140560,75.744941,PM10,NA,NA,NA
India,Haryana,Hisar,"Urban Estate-II, Hisar - HSPCB","27-03-2026 08:00:00",29.140560,75.744941,OZONE,NA,NA,NA
India,Haryana,Gurugram,"NISE Gwal Pahari, Gurugram - IMD","27-03-2026 08:00:00",28.422681,77.148944,CO,12,42,24
India,Haryana,Gurugram,"NISE Gwal Pahari, Gurugram - IMD","27-03-2026 08:00:00",28.422681,77.148944,OZONE,14,94,18
India,Haryana,Gurugram,"Sector-51, Gurugram - HSPCB","27-03-2026 08:00:00",28.4227,77.0667,SO2,5,11,8
India,Karnataka,Bagalkot,"Vidayagiri, Bagalkot - KSPCB","27-03-2026 08:00:00",16.172806,75.659694,NH3,1,1,1
India,Karnataka,Bengaluru,"BWSSB Kadabesanahalli, Bengaluru - CPCB","27-03-2026 08:00:00",12.9352049,77.6814488,PM2.5,NA,NA,NA
India,Karnataka,Bengaluru,"BWSSB Kadabesanahalli, Bengaluru - CPCB","27-03-2026 08:00:00",12.9352049,77.6814488,PM10,NA,NA,NA
India,Karnataka,Bengaluru,"BWSSB Kadabesanahalli, Bengaluru - CPCB","27-03-2026 08:00:00",12.9352049,77.6814488,NO2,NA,NA,NA
India,Karnataka,Bengaluru,"BWSSB Kadabesanahalli, Bengaluru - CPCB","27-03-2026 08:00:00",12.9352049,77.6814488,OZONE,NA,NA,NA
India,Karnataka,Bengaluru,"City Railway Station, Bengaluru - KSPCB","27-03-2026 08:00:00",12.9756843,77.5660749,SO2,NA,NA,NA
India,Karnataka,Bengaluru,"Hebbal, Bengaluru - KSPCB","27-03-2026 08:00:00",13.029152,77.585901,PM2.5,42,96,69
India,Karnataka,Bengaluru,"Hebbal, Bengaluru - KSPCB","27-03-2026 08:00:00",13.029152,77.585901,PM10,81,124,102
India,Karnataka,Bengaluru,"Jayanagar 5th Block, Bengaluru - KSPCB","27-03-2026 08:00:00",12.920984,77.584908,SO2,6,15,10
India,Karnataka,Bengaluru,"Jigani, Bengaluru - KSPCB","27-03-2026 08:00:00",12.7816279,77.6299145,PM2.5,40,80,62
India,Karnataka,Bengaluru,"Jigani, Bengaluru - KSPCB","27-03-2026 08:00:00",12.7816279,77.6299145,SO2,23,24,23
India,Karnataka,Bengaluru,"Sanegurava Halli, Bengaluru - KSPCB","27-03-2026 08:00:00",12.990328,77.5431385,CO,8,26,15
India,Karnataka,Bengaluru,"Shivapura_Peenya, Bengaluru - KSPCB","27-03-2026 08:00:00",13.0246342,77.5080115,SO2,NA,NA,NA
India,Karnataka,Bengaluru,"Silk Board, Bengaluru - KSPCB","27-03-2026 08:00:00",12.917348,77.622813,SO2,3,7,5
India,Karnataka,Mangalore,"Kadri, Mangalore - KSPCB","27-03-2026 08:00:00",12.889250,74.853000,NO2,7,10,9
India,Karnataka,Mangalore,"Kadri, Mangalore - KSPCB","27-03-2026 08:00:00",12.889250,74.853000,NH3,2,3,2
India,Karnataka,Mysuru,"Hebbal 1st Stage, Mysuru - KSPCB","27-03-2026 08:00:00",12.21041,76.37376,NH3,2,6,4
India,Karnataka,Mysuru,"Hebbal 1st Stage, Mysuru - KSPCB","27-03-2026 08:00:00",12.21041,76.37376,CO,8,50,20
India,Karnataka,Mysuru,"Hebbal 1st Stage, Mysuru - KSPCB","27-03-2026 08:00:00",12.21041,76.37376,OZONE,11,93,11
India,Karnataka,Ramanagara,"Vijay Nagar, Ramanagara - KSPCB","27-03-2026 08:00:00",12.733409,77.298051,NO2,NA,NA,NA
India,Karnataka,Ramanagara,"Vijay Nagar, Ramanagara - KSPCB","27-03-2026 08:00:00",12.733409,77.298051,OZONE,20,59,27
India,Haryana,"Yamuna Nagar","Gobind Pura, Yamuna Nagar - HSPCB","27-03-2026 08:00:00",30.1480566,77.2893471,PM2.5,78,347,126
India,Haryana,"Yamuna Nagar","Gobind Pura, Yamuna Nagar - HSPCB","27-03-2026 08:00:00",30.1480566,77.2893471,CO,29,52,35
India,Haryana,"Yamuna Nagar","Gobind Pura, Yamuna Nagar - HSPCB","27-03-2026 08:00:00",30.1480566,77.2893471,OZONE,8,34,11
India,Jammu_and_Kashmir,Srinagar,"Khunmoh, Srinagar - JKPCC","27-03-2026 08:00:00",34.06313,74.96017,PM2.5,6,18,11
India,Jammu_and_Kashmir,Srinagar,"Rajbagh, Srinagar - JKPCC","27-03-2026 08:00:00",34.066206,74.819820,PM10,20,34,24
India,Jharkhand,Dhanbad,"Sardar Patel Nagar, Dhanbad - JSPCB","27-03-2026 08:00:00",23.80569,86.44268,SO2,2,36,26
India,Jharkhand,Jorapokhar,"Tata Stadium, Jorapokhar - JSPCB","27-03-2026 08:00:00",23.707909,86.414670,NH3,3,3,3
India,Jharkhand,Jorapokhar,"Tata Stadium, Jorapokhar - JSPCB","27-03-2026 08:00:00",23.707909,86.414670,OZONE,2,45,3
India,Karnataka,Bagalkot,"Vidayagiri, Bagalkot - KSPCB","27-03-2026 08:00:00",16.172806,75.659694,NO2,11,12,12
India,Karnataka,Kalaburagi,"Mahatma Basaveswar Colony, Kalaburgi - KSPCB","27-03-2026 08:00:00",17.336318,76.847397,CO,34,78,46
India,Karnataka,Koppal,"Diwator Nagar, Koppal - KSPCB","27-03-2026 08:00:00",15.347630,76.181767,PM10,36,83,51
India,Karnataka,Madikeri,"Stuart Hill, Madikeri - KSPCB","27-03-2026 08:00:00",12.415911,75.735050,SO2,6,7,7
India,Karnataka,Dharwad,"Kalabhavan, Dharwad - KSPCB","27-03-2026 08:00:00",15.459706,75.008381,PM2.5,38,121,72
India,Karnataka,Dharwad,"Kalabhavan, Dharwad - KSPCB","27-03-2026 08:00:00",15.459706,75.008381,PM10,46,128,88
India,Karnataka,Dharwad,"Kalabhavan, Dharwad - KSPCB","27-03-2026 08:00:00",15.459706,75.008381,NO2,28,29,28
India,Karnataka,Dharwad,"Kalabhavan, Dharwad - KSPCB","27-03-2026 08:00:00",15.459706,75.008381,NH3,7,7,7
India,Karnataka,Bidar,"Naubad, Bidar - KSPCB","27-03-2026 08:00:00",17.930306,77.482194,SO2,NA,NA,NA
India,Karnataka,Bidar,"Naubad, Bidar - KSPCB","27-03-2026 08:00:00",17.930306,77.482194,CO,NA,NA,NA
India,Karnataka,Chamarajanagar,"Urban, Chamarajanagar - KSPCB","27-03-2026 08:00:00",11.55358,76.55521,SO2,3,8,4
India,Karnataka,Madikeri,"Stuart Hill, Madikeri - KSPCB","27-03-2026 08:00:00",12.415911,75.735050,OZONE,1,6,3
India,"Madhya Pradesh",Bhopal,"Paryavaran Parisar, Bhopal - MPPCB","27-03-2026 08:00:00",23.210494,77.425409,PM10,39,144,64
India,"Madhya Pradesh",Bhopal,"Paryavaran Parisar, Bhopal - MPPCB","27-03-2026 08:00:00",23.210494,77.425409,NO2,24,46,33
India,"Madhya Pradesh",Bhopal,"T T Nagar, Bhopal - MPPCB","27-03-2026 08:00:00",23.233584,77.400574,PM2.5,NA,NA,NA
India,"Madhya Pradesh",Bhopal,"T T Nagar, Bhopal - MPPCB","27-03-2026 08:00:00",23.233584,77.400574,CO,NA,NA,NA
India,"Madhya Pradesh",Bhopal,"T T Nagar, Bhopal - MPPCB","27-03-2026 08:00:00",23.233584,77.400574,OZONE,NA,NA,NA
India,"Madhya Pradesh",Gwalior,"City Center, Gwalior - MPPCB","27-03-2026 08:00:00",26.203442,78.193251,PM2.5,12,216,95
India,"Madhya Pradesh",Gwalior,"City Center, Gwalior - MPPCB","27-03-2026 08:00:00",26.203442,78.193251,NO2,36,116,74
India,"Madhya Pradesh",Gwalior,"City Center, Gwalior - MPPCB","27-03-2026 08:00:00",26.203442,78.193251,SO2,16,30,22
India,"Madhya Pradesh",Gwalior,"City Center, Gwalior - MPPCB","27-03-2026 08:00:00",26.203442,78.193251,CO,24,139,51
India,"Madhya Pradesh",Gwalior,"Deen Dayal Nagar, Gwalior - MPPCB","27-03-2026 08:00:00",26.259242,78.216432,PM10,56,401,168
India,"Madhya Pradesh",Gwalior,"Maharaj Bada, Gwalior - MPPCB","27-03-2026 08:00:00",26.200388,78.147714,PM10,46,325,150
India,"Madhya Pradesh",Indore,"Residency Area, Indore - IMC","27-03-2026 08:00:00",22.7084,75.8815,PM10,28,91,46
India,"Madhya Pradesh",Jabalpur,"Gupteshwar, Jabalpur - JMC","27-03-2026 08:00:00",23.142888,79.916147,PM10,32,146,77
India,"Madhya Pradesh",Jabalpur,"Gupteshwar, Jabalpur - JMC","27-03-2026 08:00:00",23.142888,79.916147,NO2,9,110,36
India,"Madhya Pradesh",Jabalpur,"Marhatal, Jabalpur - MPPCB","27-03-2026 08:00:00",23.168606,79.932247,SO2,21,47,36
India,"Madhya Pradesh",Jabalpur,"Suhagi, Jabalpur - JMC","27-03-2026 08:00:00",23.218135,79.957770,NH3,4,6,5
India,"Madhya Pradesh",Jabalpur,"Suhagi, Jabalpur - JMC","27-03-2026 08:00:00",23.218135,79.957770,OZONE,12,12,12
India,"Madhya Pradesh",Katni,"Gole Bazar, Katni - MPPCB","27-03-2026 08:00:00",23.50016,80.23284,PM10,37,169,77
India,Kerala,Kannur,"Thavakkara, Kannur - Kerala PCB","27-03-2026 08:00:00",11.875000,75.373200,CO,19,22,20
India,Kerala,Kollam,"Polayathode, Kollam - Kerala PCB","27-03-2026 08:00:00",8.8787,76.6073,CO,13,17,15
India,Kerala,Thrissur,"Corporation Ground, Thrissur - Kerala PCB","27-03-2026 08:00:00",10.532400,76.215900,NO2,8,10,9
India,Kerala,Thrissur,"Corporation Ground, Thrissur - Kerala PCB","27-03-2026 08:00:00",10.532400,76.215900,SO2,1,1,1
India,"Madhya Pradesh",Bhopal,"Idgah Hills, Bhopal - MPPCB","27-03-2026 08:00:00",23.264759,77.381568,NO2,19,66,34
India,"Madhya Pradesh",Bhopal,"Paryavaran Parisar, Bhopal - MPPCB","27-03-2026 08:00:00",23.210494,77.425409,PM2.5,13,90,35
India,"Madhya Pradesh",Indore,"Airport Area, Indore - IMC","27-03-2026 08:00:00",22.7289,75.8076,SO2,2,4,3
India,"Madhya Pradesh",Indore,"Chhoti Gwaltoli, Indore - MPPCB","27-03-2026 08:00:00",22.4310,75.5213,PM2.5,17,92,43
India,"Madhya Pradesh",Indore,"Chhoti Gwaltoli, Indore - MPPCB","27-03-2026 08:00:00",22.4310,75.5213,PM10,58,122,85
India,"Madhya Pradesh",Indore,"Chhoti Gwaltoli, Indore - MPPCB","27-03-2026 08:00:00",22.4310,75.5213,OZONE,8,49,30
India,"Madhya Pradesh",Indore,"Regional Park, Indore - IMC","27-03-2026 08:00:00",22.6780,75.8559,PM2.5,25,89,49
India,"Madhya Pradesh",Indore,"Regional Park, Indore - IMC","27-03-2026 08:00:00",22.6780,75.8559,SO2,30,39,32
India,Karnataka,Vijayapura,"Ibrahimpur, Vijayapura - KSPCB","27-03-2026 08:00:00",16.802639,75.722694,NH3,3,4,4
India,Kerala,Eloor,"Udyogamandal, Eloor - Kerala PCB","27-03-2026 08:00:00",10.073232,76.302765,PM10,67,78,72
India,Kerala,Eloor,"Udyogamandal, Eloor - Kerala PCB","27-03-2026 08:00:00",10.073232,76.302765,OZONE,13,15,14
India,Kerala,Kannur,"Thavakkara, Kannur - Kerala PCB","27-03-2026 08:00:00",11.875000,75.373200,NH3,2,2,2
India,"Madhya Pradesh",Katni,"Gole Bazar, Katni - MPPCB","27-03-2026 08:00:00",23.50016,80.23284,OZONE,11,129,41
India,"Madhya Pradesh",Maihar,"Sahilara, Maihar - KJS Cements","27-03-2026 08:00:00",24.2613009,80.7231783,SO2,15,18,17
India,"Madhya Pradesh",Maihar,"Sahilara, Maihar - KJS Cements","27-03-2026 08:00:00",24.2613009,80.7231783,CO,30,48,30
India,"Madhya Pradesh",Sagar,"Civil Lines, Sagar - MPPCB","27-03-2026 08:00:00",23.838586,78.759431,NH3,2,4,3
India,"Madhya Pradesh",Sagar,"Civil Lines, Sagar - MPPCB","27-03-2026 08:00:00",23.838586,78.759431,SO2,4,13,7
India,"Madhya Pradesh",Sagar,"Deen Dayal Nagar, Sagar - MPPCB","27-03-2026 08:00:00",23.8640158,78.80289321,SO2,2,5,3
India,"Madhya Pradesh",Pithampur,"Sector-2 Industrial Area, Pithampur - MPPCB","27-03-2026 08:00:00",22.624758,75.675238,OZONE,46,80,57
India,"Madhya Pradesh",Sagar,"Civil Lines, Sagar - MPPCB","27-03-2026 08:00:00",23.838586,78.759431,PM10,39,122,68
India,"Madhya Pradesh",Pithampur,"Sector-2 Industrial Area, Pithampur - MPPCB","27-03-2026 08:00:00",22.624758,75.675238,NH3,14,15,14
India,"Madhya Pradesh",Satna,"Bandhavgar Colony, Satna - Birla Cement","27-03-2026 08:00:00",24.58434363,80.8549414,SO2,19,26,21
India,"Madhya Pradesh",Satna,"Bandhavgar Colony, Satna - Birla Cement","27-03-2026 08:00:00",24.58434363,80.8549414,CO,16,50,32
India,"Madhya Pradesh",Singrauli,"Suryakiran Bhawan NCL, Singrauli - MPPCB","27-03-2026 08:00:00",24.108970,82.645580,NH3,NA,NA,NA
India,"Madhya Pradesh",Ujjain,"Mahashweta Nagar, Ujjain - MPPCB","27-03-2026 08:00:00",23.1633321,75.800225,CO,16,48,24
India,Maharashtra,Ahmednagar,"Tarakpur, Ahmednagar - MPCB","27-03-2026 08:00:00",19.10122,74.73339,PM10,43,114,82
India,Maharashtra,Ahmednagar,"Tarakpur, Ahmednagar - MPCB","27-03-2026 08:00:00",19.10122,74.73339,SO2,1,7,3
India,Maharashtra,Ahmednagar,"Tarakpur, Ahmednagar - MPCB","27-03-2026 08:00:00",19.10122,74.73339,OZONE,10,112,22
India,Maharashtra,Akola,"Ramdaspeth, Akola - MPCB","27-03-2026 08:00:00",20.719516,77.000253,NO2,5,82,29
India,Maharashtra,Akola,"Ramdaspeth, Akola - MPCB","27-03-2026 08:00:00",20.719516,77.000253,OZONE,4,94,25
India,Maharashtra,Ambernath,"Chinchpada, Ambernath - MPCB","27-03-2026 08:00:00",19.2157840,73.1997810,NH3,2,8,3
India,Maharashtra,Ambernath,"Chinchpada, Ambernath - MPCB","27-03-2026 08:00:00",19.2157840,73.1997810,OZONE,7,83,15
India,Maharashtra,Amravati,"Shivneri Colony, Amravati - MPCB","27-03-2026 08:00:00",20.9402359,77.7895248,PM2.5,36,72,54
India,Maharashtra,Amravati,"Shivneri Colony, Amravati - MPCB","27-03-2026 08:00:00",20.9402359,77.7895248,PM10,61,111,85
India,Maharashtra,Mumbai,"Bandra Kurla Complex, Mumbai - MPCB","27-03-2026 08:00:00",19.065931,72.862131,CO,6,13,9
India,Maharashtra,Mumbai,"Borivali East, Mumbai - IITM","27-03-2026 08:00:00",19.23241,72.86895,OZONE,9,60,32
India,Maharashtra,Mumbai,"Borivali East, Mumbai - MPCB","27-03-2026 08:00:00",19.2243333,72.8658113,NH3,1,7,3
India,Maharashtra,Mumbai,"Byculla, Mumbai - BMC","27-03-2026 08:00:00",18.9767,72.8380,PM2.5,26,85,59
India,Maharashtra,Mumbai,"Byculla, Mumbai - BMC","27-03-2026 08:00:00",18.9767,72.8380,NH3,4,23,9
India,Maharashtra,Mumbai,"Chembur, Mumbai - MPCB","27-03-2026 08:00:00",19.0364585,72.8954371,PM2.5,2,20,9
India,Maharashtra,Mumbai,"Chembur, Mumbai - MPCB","27-03-2026 08:00:00",19.0364585,72.8954371,NO2,21,82,38
India,Maharashtra,Mumbai,"Chhatrapati Shivaji Intl. Airport (T2), Mumbai - MPCB","27-03-2026 08:00:00",19.10078,72.87462,PM2.5,47,298,102
India,Maharashtra,Mumbai,"Chhatrapati Shivaji Intl. Airport (T2), Mumbai - MPCB","27-03-2026 08:00:00",19.10078,72.87462,PM10,56,204,108
India,Maharashtra,Kalyan,"Pimpleshwar Mandir, Kalyan - MPCB","27-03-2026 08:00:00",19.192056,72.9585188,OZONE,NA,NA,NA
India,Maharashtra,Kolhapur,"Shivaji University, Kolhapur - MPCB","27-03-2026 08:00:00",16.6870449,74.2505872,PM2.5,47,80,65
India,Maharashtra,Kolhapur,"Shivaji University, Kolhapur - MPCB","27-03-2026 08:00:00",16.6870449,74.2505872,PM10,46,76,63
India,Maharashtra,Kolhapur,"Shivaji University, Kolhapur - MPCB","27-03-2026 08:00:00",16.6870449,74.2505872,OZONE,15,64,20
India,Maharashtra,Kolhapur,"Sinchan Bhavan, Kolhapur - MPCB","27-03-2026 08:00:00",16.7143745,74.2426398,CO,3,10,7
India,Maharashtra,Latur,"Sawe Wadi, Latur - MPCB","27-03-2026 08:00:00",18.39963,76.57452,PM2.5,44,134,89
India,Maharashtra,Mahad,"Kamble Tarf Birwadi, Mahad - MPCB","27-03-2026 08:00:00",18.1023399,73.4783687,NH3,2,8,7
India,Maharashtra,Mahad,"Kamble Tarf Birwadi, Mahad - MPCB","27-03-2026 08:00:00",18.1023399,73.4783687,CO,24,46,33
India,Maharashtra,Amravati,"Shivneri Colony, Amravati - MPCB","27-03-2026 08:00:00",20.9402359,77.7895248,OZONE,5,80,8
India,Maharashtra,Amravati,"Shri Shivaji Science College, Amravati - MPCB","27-03-2026 08:00:00",20.939198,77.765701,PM2.5,32,79,55
India,Maharashtra,Amravati,"Shri Shivaji Science College, Amravati - MPCB","27-03-2026 08:00:00",20.939198,77.765701,NO2,3,40,15
India,Maharashtra,Amravati,"Shri Shivaji Science College, Amravati - MPCB","27-03-2026 08:00:00",20.939198,77.765701,SO2,22,68,29
India,Maharashtra,Amravati,"Shri Shivaji Science College, Amravati - MPCB","27-03-2026 08:00:00",20.939198,77.765701,OZONE,2,70,10
India,Maharashtra,Aurangabad,"Rachnakar Colony, Aurangabad - MPCB","27-03-2026 08:00:00",19.863756,75.321188,CO,18,62,29
India,Maharashtra,Badlapur,"Katrap, Badlapur - MPCB","27-03-2026 08:00:00",19.16485,73.23409,PM10,52,120,92
India,Maharashtra,Badlapur,"Katrap, Badlapur - MPCB","27-03-2026 08:00:00",19.16485,73.23409,NH3,3,7,5
India,Maharashtra,Bhiwandi,"Gokul Nagar, Bhiwandi - MPCB","27-03-2026 08:00:00",19.309073,73.057223,SO2,4,17,10
India,Maharashtra,Chandrapur,"Chauhan Colony, Chandrapur - MPCB","27-03-2026 08:00:00",19.962900,79.298714,SO2,20,32,27
India,Maharashtra,Chandrapur,"Chauhan Colony, Chandrapur - MPCB","27-03-2026 08:00:00",19.962900,79.298714,CO,20,35,23
India,Maharashtra,Dhule,"Deopur, Dhule - MPCB","27-03-2026 08:00:00",20.918946,74.776388,SO2,4,27,13
India,Maharashtra,Dombivli,"Kalu Nagar, Dombivli - MPCB","27-03-2026 08:00:00","19.2268427 ","73.0788456 ",PM2.5,17,42,27
India,Maharashtra,Jalna,"Old MIDC, Jalna - MPCB","27-03-2026 08:00:00",19.854616,75.905894,PM2.5,37,82,55
India,Maharashtra,Jalna,"Old MIDC, Jalna - MPCB","27-03-2026 08:00:00",19.854616,75.905894,SO2,1,7,2
India,Maharashtra,Kalyan,"Khadakpada, Kalyan - MPCB","27-03-2026 08:00:00",19.25292,73.142019,NO2,36,37,36
India,Maharashtra,Kalyan,"Pimpleshwar Mandir, Kalyan - MPCB","27-03-2026 08:00:00",19.192056,72.9585188,CO,NA,NA,NA
India,Maharashtra,Mira-Bhayandar,"Bhayandar West, Mira-Bhayandar - MPCB","27-03-2026 08:00:00",19.296481,72.840923,OZONE,54,57,55
India,Maharashtra,Mumbai,"Bandra Kurla Complex, Mumbai - IITM","27-03-2026 08:00:00",19.053536,72.84643,CO,13,109,38
India,Maharashtra,Badlapur,"Katrap, Badlapur - MPCB","27-03-2026 08:00:00",19.16485,73.23409,OZONE,9,101,11
India,Maharashtra,Belapur,"CBD Belapur, Belapur - MPCB","27-03-2026 08:00:00",19.0243902,73.0406721,NO2,12,42,26
India,Maharashtra,Belapur,"CBD Belapur, Belapur - MPCB","27-03-2026 08:00:00",19.0243902,73.0406721,CO,25,68,36
India,Maharashtra,Belapur,"CBD Belapur, Belapur - MPCB","27-03-2026 08:00:00",19.0243902,73.0406721,OZONE,7,100,8
India,Maharashtra,Mumbai,"Mindspace-Malad West, Mumbai - MPCB","27-03-2026 08:00:00",19.1878657,72.8304069,CO,14,80,22
India,Maharashtra,Mumbai,"Mulund West, Mumbai - MPCB","27-03-2026 08:00:00",19.1750,72.9419,PM10,49,114,84
India,Maharashtra,Mumbai,"Navy Nagar-Colaba, Mumbai - IITM","27-03-2026 08:00:00",18.897756,72.813320,NO2,24,145,54
India,Maharashtra,Mumbai,"Navy Nagar-Colaba, Mumbai - IITM","27-03-2026 08:00:00",18.897756,72.813320,NH3,5,8,6
India,Maharashtra,Mumbai,"Shivaji Nagar, Mumbai - BMC","27-03-2026 08:00:00",19.060498,72.923356,PM2.5,31,89,58
India,Maharashtra,Mumbai,"Siddharth Nagar-Worli, Mumbai - IITM","27-03-2026 08:00:00",19.000083,72.813993,NO2,19,96,36
India,Maharashtra,Mumbai,"Siddharth Nagar-Worli, Mumbai - IITM","27-03-2026 08:00:00",19.000083,72.813993,NH3,4,6,4
India,Maharashtra,Mumbai,"Siddharth Nagar-Worli, Mumbai - IITM","27-03-2026 08:00:00",19.000083,72.813993,OZONE,27,81,57
India,Maharashtra,Mumbai,"Sion, Mumbai - MPCB","27-03-2026 08:00:00",19.047000,72.874600,SO2,1,5,1
India,Maharashtra,Mumbai,"Khindipada-Bhandup West, Mumbai - IITM","27-03-2026 08:00:00",19.1653323,72.922099,CO,23,43,29
India,Maharashtra,Mumbai,"Kurla, Mumbai - MPCB","27-03-2026 08:00:00",19.0863,72.8888,CO,10,25,16
India,Maharashtra,Mumbai,"Malad West, Mumbai - IITM","27-03-2026 08:00:00",19.19709,72.82204,PM2.5,5,98,47
India,Maharashtra,Mumbai,"Malad West, Mumbai - IITM","27-03-2026 08:00:00",19.19709,72.82204,NO2,35,99,52
India,Maharashtra,Mumbai,"Mazgaon, Mumbai - IITM","27-03-2026 08:00:00",18.96702,72.84214,PM2.5,33,73,53
India,Maharashtra,Mumbai,"Mindspace-Malad West, Mumbai - MPCB","27-03-2026 08:00:00",19.1878657,72.8304069,SO2,6,24,13
India,Maharashtra,Nagpur,"Ram Nagar, Nagpur - MPCB","27-03-2026 08:00:00",21.143383,79.048912,CO,18,63,23
India,Maharashtra,Nanded,"Sneh Nagar, Nanded - MPCB","27-03-2026 08:00:00",19.173852,77.296291,PM2.5,59,99,86
India,Maharashtra,Nanded,"Sneh Nagar, Nanded - MPCB","27-03-2026 08:00:00",19.173852,77.296291,NH3,3,5,4
India,Maharashtra,Nashik,"Hirawadi, Nashik - MPCB","27-03-2026 08:00:00",20.021503,73.813844,PM10,87,144,111
India,Maharashtra,Nashik,"Hirawadi, Nashik - MPCB","27-03-2026 08:00:00",20.021503,73.813844,NO2,2,23,11
India,Maharashtra,Nashik,"Hirawadi, Nashik - MPCB","27-03-2026 08:00:00",20.021503,73.813844,SO2,1,71,13
India,Maharashtra,Nashik,"Hirawadi, Nashik - MPCB","27-03-2026 08:00:00",20.021503,73.813844,OZONE,4,103,39
India,Maharashtra,Nagpur,"Opp GPO Civil Lines, Nagpur - MPCB","27-03-2026 08:00:00",21.152875,79.0517531,OZONE,3,39,12
India,Maharashtra,Nagpur,"Ram Nagar, Nagpur - MPCB","27-03-2026 08:00:00",21.143383,79.048912,PM2.5,63,136,98
India,Maharashtra,Nagpur,"Ram Nagar, Nagpur - MPCB","27-03-2026 08:00:00",21.143383,79.048912,NH3,4,4,4
India,Maharashtra,Nashik,"MIDC Ambad, Nashik - MPCB","27-03-2026 08:00:00",19.950220,73.731480,SO2,3,24,11
India,Maharashtra,Nashik,"MIDC Ambad, Nashik - MPCB","27-03-2026 08:00:00",19.950220,73.731480,OZONE,19,83,28
India,Maharashtra,Nashik,"Pandav Nagari, Nashik - MPCB","27-03-2026 08:00:00",19.9591346,73.7788008,PM2.5,58,176,87
India,Maharashtra,Mumbai,"Vile Parle West, Mumbai - MPCB","27-03-2026 08:00:00",19.10861,72.83622,PM10,28,102,59
India,Maharashtra,Mumbai,"Vile Parle West, Mumbai - MPCB","27-03-2026 08:00:00",19.10861,72.83622,NH3,6,6,6
India,Maharashtra,Mumbai,"Worli, Mumbai -MPCB","27-03-2026 08:00:00",18.9942180,72.8158167,PM10,11,282,89
India,Maharashtra,Mumbai,"Ghatkopar, Mumbai - BMC","27-03-2026 08:00:00",19.083694,72.920967,NO2,16,37,26
India,Maharashtra,Mumbai,"Kandivali East, Mumbai - MPCB","27-03-2026 08:00:00",19.205800,72.868200,NO2,36,36,36
India,Maharashtra,Mumbai,"Kandivali East, Mumbai - MPCB","27-03-2026 08:00:00",19.205800,72.868200,OZONE,14,15,15
India,Maharashtra,Mumbai,"Kherwadi_Bandra East, Mumbai - MPCB","27-03-2026 08:00:00",19.0632143,72.8456324,NO2,1,60,22
India,Maharashtra,Mumbai,"Colaba, Mumbai - MPCB","27-03-2026 08:00:00",18.910000,72.820000,CO,61,79,65
India,Maharashtra,Pune,"Mhada Colony, Pune - IITM","27-03-2026 08:00:00",18.573040,73.927715,NO2,23,148,84
India,Maharashtra,Pune,"Mhada Colony, Pune - IITM","27-03-2026 08:00:00",18.573040,73.927715,CO,2,101,82
India,Maharashtra,Pune,"Panchawati_Pashan, Pune - IITM","27-03-2026 08:00:00",18.536457,73.805454,NO2,7,51,22
India,Maharashtra,Pune,"Panchawati_Pashan, Pune - IITM","27-03-2026 08:00:00",18.536457,73.805454,OZONE,12,44,18
India,Maharashtra,Pune,"Savitribai Phule Pune University, Pune - MPCB","27-03-2026 08:00:00",18.547056,73.826908,SO2,2,8,4
India,Maharashtra,Pune,"Transport Nagar-Nigdi, Pune - IITM","27-03-2026 08:00:00",18.664282,73.763966,OZONE,4,25,8
India,Maharashtra,Sangli,"Vijay Nagar, Sangli - MPCB","27-03-2026 08:00:00"," 16.5038",74.3623,PM2.5,NA,NA,NA
India,Maharashtra,"Navi Mumbai","Sector-2E Kalamboli, Navi Mumbai - MPCB","27-03-2026 08:00:00",19.02579,73.10297,NO2,9,36,21
India,Maharashtra,"Navi Mumbai","Sector-2E Kalamboli, Navi Mumbai - MPCB","27-03-2026 08:00:00",19.02579,73.10297,SO2,4,15,11
India,Maharashtra,"Navi Mumbai","Sector-2E Kalamboli, Navi Mumbai - MPCB","27-03-2026 08:00:00",19.02579,73.10297,OZONE,1,57,3
India,Maharashtra,"Navi Mumbai","Tondare-Taloja, Navi Mumbai - MPCB","27-03-2026 08:00:00",19.0630,73.1209,NO2,11,20,15
India,Maharashtra,"Navi Mumbai","Tondare-Taloja, Navi Mumbai - MPCB","27-03-2026 08:00:00",19.0630,73.1209,NH3,4,6,5
India,Maharashtra,Pimpri-Chinchwad,"Gavalinagar, Pimpri Chinchwad - MPCB","27-03-2026 08:00:00",18.63673,73.82487,NO2,17,96,46
India,Maharashtra,Pimpri-Chinchwad,"Park Street Wakad, Pimpri Chinchwad - MPCB","27-03-2026 08:00:00",18.59051,73.77946,NH3,3,8,6
India,Maharashtra,Solapur,"Dnyaneshwar Nagar, Solapur - MPCB","27-03-2026 08:00:00",17.6336264,75.9132495,PM10,59,138,99
India,Maharashtra,Solapur,"Dnyaneshwar Nagar, Solapur - MPCB","27-03-2026 08:00:00",17.6336264,75.9132495,SO2,2,7,4
India,Maharashtra,Solapur,"Dnyaneshwar Nagar, Solapur - MPCB","27-03-2026 08:00:00",17.6336264,75.9132495,CO,12,100,33
India,Maharashtra,Thane,"Kasarvadavali, Thane - MPCB","27-03-2026 08:00:00",19.26777,72.97182,PM10,50,107,81
India,Maharashtra,Ulhasnagar,"Sidhi Vinayak Nagar, Ulhasnagar - MPCB","27-03-2026 08:00:00",19.235581,73.159121,PM2.5,62,96,80
India,Maharashtra,Ulhasnagar,"Sidhi Vinayak Nagar, Ulhasnagar - MPCB","27-03-2026 08:00:00",19.235581,73.159121,NH3,3,7,5
India,Maharashtra,Pimpri-Chinchwad,"Savta Mali Nagar, Pimpri-Chinchwad - IITM","27-03-2026 08:00:00",18.614767,73.799516,PM10,65,144,105
India,Maharashtra,Pimpri-Chinchwad,"Thergaon, Pimpri Chinchwad - MPCB","27-03-2026 08:00:00",18.616318,73.765797,SO2,1,15,6
India,Maharashtra,Pune,"Bhumkar Nagar, Pune - IITM","27-03-2026 08:00:00",18.605770,73.749976,NO2,21,101,42
India,Maharashtra,Pune,"Katraj Dairy, Pune - MPCB","27-03-2026 08:00:00",18.454450,73.854155,NO2,18,56,32
India,Maharashtra,Nashik,"Pandav Nagari, Nashik - MPCB","27-03-2026 08:00:00",19.9591346,73.7788008,NH3,2,5,3
India,Maharashtra,"Navi Mumbai","Kopripada-Vashi, Navi Mumbai - MPCB","27-03-2026 08:00:00",19.090337,73.014232,PM2.5,23,100,61
India,Maharashtra,Pune,"Katraj Dairy, Pune - MPCB","27-03-2026 08:00:00",18.454450,73.854155,OZONE,14,56,23
India,Maharashtra,Pune,"Mhada Colony, Pune - IITM","27-03-2026 08:00:00",18.573040,73.927715,PM2.5,40,182,112
India,Maharashtra,"Navi Mumbai","Mahape, Navi Mumbai - MPCB","27-03-2026 08:00:00",19.1135051,73.008978,SO2,18,25,20
India,Meghalaya,Shillong,"Lumpyngngad, Shillong - Meghalaya PCB","27-03-2026 08:00:00",25.5586,91.8985,SO2,NA,NA,NA
India,Maharashtra,Virar,"Bolinj, Virar - MPCB","27-03-2026 08:00:00",19.4458210,72.7988231,PM10,17,100,70
India,Odisha,Brajrajnagar,"GM Office, Brajrajnagar - OSPCB","27-03-2026 08:00:00",21.8004996,83.8396977,CO,21,69,44
India,Odisha,Byasanagar,"Ferro Chrome Colony, Byasanagar - OSPCB","27-03-2026 08:00:00",20.94185,86.11510,PM10,91,138,108
India,Odisha,Byasanagar,"Ferro Chrome Colony, Byasanagar - OSPCB","27-03-2026 08:00:00",20.94185,86.11510,SO2,5,106,19
India,Odisha,Byasanagar,"Ferro Chrome Colony, Byasanagar - OSPCB","27-03-2026 08:00:00",20.94185,86.11510,OZONE,14,152,16
India,Odisha,Cuttack,"CDA Area, Cuttack - OSPCB","27-03-2026 08:00:00","20.48891     ","85.84768     ",PM2.5,48,173,88
India,Odisha,Cuttack,"CDA Area, Cuttack - OSPCB","27-03-2026 08:00:00","20.48891     ","85.84768     ",NH3,2,3,2
India,Odisha,Cuttack,"CDA Area, Cuttack - OSPCB","27-03-2026 08:00:00","20.48891     ","85.84768     ",SO2,4,16,8
India,Odisha,Keonjhar,"Jagamohanpur, Keonjhar - OSPCB","27-03-2026 08:00:00",21.643900,85.599355,SO2,9,64,21
India,Odisha,Nayagarh,"Dabuna, Nayagarh - OSPCB","27-03-2026 08:00:00",21.847279,85.416905,PM10,101,231,154
India,Odisha,Nayagarh,"Dabuna, Nayagarh - OSPCB","27-03-2026 08:00:00",21.847279,85.416905,NH3,6,7,7
India,Odisha,Rairangpur,"Divisional Forest Office, Rairangpur - OSPCB","27-03-2026 08:00:00",22.265816,86.174829,NH3,1,1,1
India,Odisha,Rairangpur,"Divisional Forest Office, Rairangpur - OSPCB","27-03-2026 08:00:00",22.265816,86.174829,OZONE,7,44,9
India,Odisha,Rourkela,"Fertilizer Township, Rourkela - OSPCB","27-03-2026 08:00:00",22.18972222,84.86277778,PM2.5,76,136,84
India,Odisha,Rourkela,"Fertilizer Township, Rourkela - OSPCB","27-03-2026 08:00:00",22.18972222,84.86277778,PM10,84,92,86
India,Puducherry,Puducherry,"Jawahar Nagar, Puducherry - PPCC","27-03-2026 08:00:00",11.9309,79.8027,OZONE,4,42,18
India,Punjab,Amritsar,"Golden Temple, Amritsar - PPCB","27-03-2026 08:00:00",31.620000,74.876512,CO,26,42,29
India,Punjab,Bathinda,"Hardev Nagar, Bathinda - PPCB","27-03-2026 08:00:00",30.233011,74.907758,SO2,6,16,11
India,Punjab,Bathinda,"Hardev Nagar, Bathinda - PPCB","27-03-2026 08:00:00",30.233011,74.907758,CO,46,78,75
India,Punjab,Jalandhar,"Civil Line, Jalandhar - PPCB","27-03-2026 08:00:00",31.321907,75.578914,PM2.5,35,80,57
India,Punjab,Khanna,"Kalal Majra, Khanna - PPCB","27-03-2026 08:00:00","30.736056 ",76.209694,PM2.5,32,82,53
India,Punjab,Khanna,"Kalal Majra, Khanna - PPCB","27-03-2026 08:00:00","30.736056 ",76.209694,NO2,26,30,28
India,Punjab,Khanna,"Kalal Majra, Khanna - PPCB","27-03-2026 08:00:00","30.736056 ",76.209694,NH3,7,8,7
India,Punjab,Khanna,"Kalal Majra, Khanna - PPCB","27-03-2026 08:00:00","30.736056 ",76.209694,OZONE,19,41,20
India,Odisha,Rourkela,"Raghunathpali, Rourkela - OSPCB","27-03-2026 08:00:00",22.220833,84.809444,NH3,1,2,1
India,Odisha,Rourkela,"Sector-2, Rourkela - OSPCB","27-03-2026 08:00:00",22.24500000,84.88111111,PM2.5,38,57,50
India,Odisha,Rourkela,"Sector-2, Rourkela - OSPCB","27-03-2026 08:00:00",22.24500000,84.88111111,NO2,17,17,17
India,Odisha,Suakati,"OMC Colony, Suakati - OSPCB","27-03-2026 08:00:00",21.606865,85.510538,SO2,19,57,31
India,Odisha,Talcher,"Talcher Coalfields,Talcher - OSPCB","27-03-2026 08:00:00",20.9360711,85.1707021,NO2,28,56,39
India,Odisha,Talcher,"Talcher Coalfields,Talcher - OSPCB","27-03-2026 08:00:00",20.9360711,85.1707021,NH3,6,9,7
India,Odisha,Talcher,"Talcher Coalfields,Talcher - OSPCB","27-03-2026 08:00:00",20.9360711,85.1707021,OZONE,36,93,44
India,Odisha,Tensa,"Barsua Iron Ore Mines, Tensa - OSPCB","27-03-2026 08:00:00",21.869985,85.167016,NH3,4,5,5
India,Odisha,Tensa,"Barsua Iron Ore Mines, Tensa - OSPCB","27-03-2026 08:00:00",21.869985,85.167016,CO,15,69,44
India,Rajasthan,Bhiwadi,"Vasundhara Nagar_UIT, Bhiwadi - RSPCB","27-03-2026 08:00:00",28.207266,76.829265,NO2,15,148,40
India,Rajasthan,Bikaner,"MM Ground, Bikaner - RSPCB","27-03-2026 08:00:00",28.018792,73.292658,NO2,11,43,21
India,Rajasthan,Bikaner,"MM Ground, Bikaner - RSPCB","27-03-2026 08:00:00",28.018792,73.292658,NH3,11,14,12
India,Rajasthan,Bundi,"New Colony, Bundi - RSPCB","27-03-2026 08:00:00",25.435774,75.644272,NH3,3,4,4
India,Rajasthan,Bundi,"New Colony, Bundi - RSPCB","27-03-2026 08:00:00",25.435774,75.644272,SO2,4,33,11
India,Rajasthan,Chittorgarh,"Shastri Nagar, Chittorgarh - RSPCB","27-03-2026 08:00:00",24.892047,74.623527,PM2.5,23,113,62
India,Rajasthan,Chittorgarh,"Shastri Nagar, Chittorgarh - RSPCB","27-03-2026 08:00:00",24.892047,74.623527,NH3,6,13,10
India,Rajasthan,Churu,"Subash Chowk, Churu - RSPCB","27-03-2026 08:00:00",28.296139,74.961696,SO2,2,9,4
India,Odisha,Balasore,"Kalidaspur, Balasore - OSPCB","27-03-2026 08:00:00",21.51161,86.89088,CO,38,54,48
India,Odisha,Barbil,"Forest Office, Barbil - OSPCB","27-03-2026 08:00:00",22.1166054,85.3945546,OZONE,13,158,21
India,Odisha,Bhubaneswar,"Lingraj Mandir, Bhubaneswar - OSPCB","27-03-2026 08:00:00",20.240790,85.836784,NO2,4,31,11
India,Odisha,Bhubaneswar,"Lingraj Mandir, Bhubaneswar - OSPCB","27-03-2026 08:00:00",20.240790,85.836784,NH3,2,3,2
India,Odisha,Brajrajnagar,"GM Office, Brajrajnagar - OSPCB","27-03-2026 08:00:00",21.8004996,83.8396977,PM2.5,7,216,41
India,Odisha,Brajrajnagar,"GM Office, Brajrajnagar - OSPCB","27-03-2026 08:00:00",21.8004996,83.8396977,NH3,4,5,5
India,Rajasthan,Baran,"Bamboliya, Baran - RSPCB","27-03-2026 08:00:00",25.106006,76.469948,NO2,9,102,32
India,Rajasthan,Baran,"Bamboliya, Baran - RSPCB","27-03-2026 08:00:00",25.106006,76.469948,CO,6,32,18
India,Rajasthan,Barmer,"Railway Colony, Barmer - RSPCB","27-03-2026 08:00:00",25.747299,71.393989,NO2,8,31,13
India,Rajasthan,Bharatpur,"Krishna Nagar, Bharatpur - RSPCB","27-03-2026 08:00:00",27.215415,77.50873,PM10,40,166,90
India,Rajasthan,Bhiwadi,"RIICO Ind. Area III, Bhiwadi - RSPCB","27-03-2026 08:00:00",28.194909,76.862296,CO,2,72,40
India,Odisha,Angul,"Hakimapada, Angul - OSPCB","27-03-2026 08:00:00",20.832874,85.104082,PM10,81,318,175
India,Odisha,Angul,"Hakimapada, Angul - OSPCB","27-03-2026 08:00:00",20.832874,85.104082,NO2,14,69,37
India,Odisha,Angul,"Hakimapada, Angul - OSPCB","27-03-2026 08:00:00",20.832874,85.104082,CO,28,147,74
India,Odisha,Balasore,"Kalidaspur, Balasore - OSPCB","27-03-2026 08:00:00",21.51161,86.89088,PM2.5,33,110,62
India,Odisha,Balasore,"Kalidaspur, Balasore - OSPCB","27-03-2026 08:00:00",21.51161,86.89088,NH3,2,3,2
India,Odisha,Balasore,"Kalidaspur, Balasore - OSPCB","27-03-2026 08:00:00",21.51161,86.89088,SO2,5,8,6
India,Punjab,"Mandi Gobindgarh","RIMT University, Mandi Gobindgarh - PPCB","27-03-2026 08:00:00",30.649961,76.331442,SO2,3,110,31
India,Punjab,"Mandi Gobindgarh","RIMT University, Mandi Gobindgarh - PPCB","27-03-2026 08:00:00",30.649961,76.331442,OZONE,33,51,40
India,Punjab,Patiala,"Model Town, Patiala - PPCB","27-03-2026 08:00:00",30.349388,76.366642,PM10,51,84,65
India,Rajasthan,Ajmer,"Civil Lines,  Ajmer - RSPCB","27-03-2026 08:00:00",26.470859,74.646594,PM10,41,74,59
India,Meghalaya,Shillong,"Lumpyngngad, Shillong - Meghalaya PCB","27-03-2026 08:00:00",25.5586,91.8985,OZONE,NA,NA,NA
India,Rajasthan,Jaipur,"Adarsh Nagar, Jaipur - RSPCB","27-03-2026 08:00:00",26.902909,75.836858,OZONE,9,88,42
India,Rajasthan,Jaipur,"Mansarovar Sector-12, Jaipur - RSPCB","27-03-2026 08:00:00",26.843698,75.766894,OZONE,4,184,72
India,Rajasthan,Jaipur,"Police Commissionerate, Jaipur - RSPCB","27-03-2026 08:00:00",26.9164092,75.7994901,PM10,NA,NA,NA
India,Rajasthan,Jaipur,"Police Commissionerate, Jaipur - RSPCB","27-03-2026 08:00:00",26.9164092,75.7994901,NH3,1,4,2
India,Rajasthan,Jaipur,"RIICO Sitapura, Jaipur - RSPCB","27-03-2026 08:00:00",26.786682,75.827928,PM10,45,431,138
India,Rajasthan,Jaipur,"RIICO Sitapura, Jaipur - RSPCB","27-03-2026 08:00:00",26.786682,75.827928,NO2,92,185,138
India,Rajasthan,Jaipur,"RIICO Sitapura, Jaipur - RSPCB","27-03-2026 08:00:00",26.786682,75.827928,SO2,3,12,8
India,Rajasthan,Jaipur,"Sector-2 Murlipura, Jaipur - RSPCB","27-03-2026 08:00:00",26.960669,75.771817,PM10,57,258,109
India,Rajasthan,Jaipur,"Sector-2 Murlipura, Jaipur - RSPCB","27-03-2026 08:00:00",26.960669,75.771817,CO,12,100,16
India,Rajasthan,Jaipur,"Shastri Nagar, Jaipur - RSPCB","27-03-2026 08:00:00",26.9502929,75.730943,NO2,37,103,53
India,Rajasthan,Jaipur,"Shastri Nagar, Jaipur - RSPCB","27-03-2026 08:00:00",26.9502929,75.730943,SO2,1,48,25
India,Rajasthan,Jaipur,"Shastri Nagar, Jaipur - RSPCB","27-03-2026 08:00:00",26.9502929,75.730943,CO,16,124,28
India,Rajasthan,Jaisalmer,"Sadar Bazar, Jaisalmer - RSPCB","27-03-2026 08:00:00",26.912329,70.909168,CO,12,27,13
India,Rajasthan,Jalore,"Mudtra Sili, Jalore - RSPCB","27-03-2026 08:00:00",25.344694,72.626208,OZONE,19,74,39
India,Rajasthan,Jhalawar,"Rajlaxmi Nagar, Jhalawar - RSPCB","27-03-2026 08:00:00",24.588397,76.172782,PM2.5,8,85,47
India,Rajasthan,Jhalawar,"Rajlaxmi Nagar, Jhalawar - RSPCB","27-03-2026 08:00:00",24.588397,76.172782,SO2,4,28,13
India,Rajasthan,Jhunjhunu,"Indra Nagar, Jhunjhunu - RSPCB","27-03-2026 08:00:00",28.108988,75.386577,PM2.5,13,260,53
India,Rajasthan,Jodhpur,"Collectorate, Jodhpur - RSPCB","27-03-2026 08:00:00",26.268249,73.0193853,NH3,6,18,9
India,Rajasthan,Jodhpur,"Collectorate, Jodhpur - RSPCB","27-03-2026 08:00:00",26.268249,73.0193853,SO2,1,8,5
India,Rajasthan,Jodhpur,"Collectorate, Jodhpur - RSPCB","27-03-2026 08:00:00",26.268249,73.0193853,OZONE,4,65,46
India,Rajasthan,Jodhpur,"Digari Kalan, Jodhpur - RSPCB","27-03-2026 08:00:00",26.295810,73.082283,NH3,5,9,7
India,Rajasthan,Dausa,"Khatikan Mohalla, Dausa - RSPCB","27-03-2026 08:00:00",26.895552,76.334753,OZONE,6,134,45
India,Rajasthan,Dholpur,"Raja Ganj, Dholpur - RSPCB","27-03-2026 08:00:00",26.699557,77.898881,PM10,35,211,100
India,Rajasthan,Dungarpur,"Bhoiwada, Dungarpur - RSPCB","27-03-2026 08:00:00",23.837789,73.714926,PM10,33,104,58
India,Rajasthan,Dungarpur,"Bhoiwada, Dungarpur - RSPCB","27-03-2026 08:00:00",23.837789,73.714926,SO2,6,9,7
India,Rajasthan,Hanumangarh,"Housing Board, Hanumangarh - RSPCB","27-03-2026 08:00:00",29.610750,74.283608,NH3,4,6,5
India,Rajasthan,Jaipur,"Adarsh Nagar, Jaipur - RSPCB","27-03-2026 08:00:00",26.902909,75.836858,PM2.5,69,171,97
India,Rajasthan,Jaipur,"Adarsh Nagar, Jaipur - RSPCB","27-03-2026 08:00:00",26.902909,75.836858,SO2,14,30,23
India,Rajasthan,Kota,"Shrinath Puram, Kota - RSPCB","27-03-2026 08:00:00",25.14389,75.821256,OZONE,5,40,13
India,Rajasthan,Nagaur,"Karni Colony, Nagaur - RSPCB","27-03-2026 08:00:00",27.213494,73.734444,PM2.5,15,87,35
India,Rajasthan,Nagaur,"Karni Colony, Nagaur - RSPCB","27-03-2026 08:00:00",27.213494,73.734444,PM10,54,157,96
India,Rajasthan,Nagaur,"Karni Colony, Nagaur - RSPCB","27-03-2026 08:00:00",27.213494,73.734444,NO2,6,31,14
India,Rajasthan,Pali,"Indira Colony Vistar, Pali - RSPCB","27-03-2026 08:00:00",25.771061," 73.340227",PM10,87,135,113
India,Rajasthan,Pali,"Indira Colony Vistar, Pali - RSPCB","27-03-2026 08:00:00",25.771061," 73.340227",NH3,2,5,3
India,Rajasthan,Jodhpur,"Jhalamand, Jodhpur - RSPCB","27-03-2026 08:00:00",26.215415,73.070156,PM10,35,159,73
India,Rajasthan,Jodhpur,"Mandor, Jodhpur - RSPCB","27-03-2026 08:00:00",26.358805,73.047444,PM2.5,10,63,36
India,Rajasthan,Jodhpur,"Samrat Ashok Udhyan, Jodhpur - RSPCB","27-03-2026 08:00:00",26.253384,72.976571,NO2,4,58,13
India,Rajasthan,Karauli,"Satyawati Vihar, Karauli - RSPCB","27-03-2026 08:00:00",26.506177,77.025989,NO2,7,79,27
India,Rajasthan,Karauli,"Satyawati Vihar, Karauli - RSPCB","27-03-2026 08:00:00",26.506177,77.025989,SO2,3,8,6
India,Rajasthan,Karauli,"Satyawati Vihar, Karauli - RSPCB","27-03-2026 08:00:00",26.506177,77.025989,OZONE,8,97,37
India,Rajasthan,Pratapgarh,"Pragati Nagar, Pratapgarh - RSPCB","27-03-2026 08:00:00",24.041198,74.780702,NO2,22,44,30
India,Rajasthan,"Sawai Madhopur","Sahu Nagar, Sawai Madhopur - RSPCB","27-03-2026 08:00:00",26.031443,76.359327,PM2.5,17,99,49
India,Rajasthan,"Sawai Madhopur","Sahu Nagar, Sawai Madhopur - RSPCB","27-03-2026 08:00:00",26.031443,76.359327,NO2,4,81,30
India,Rajasthan,"Sawai Madhopur","Sahu Nagar, Sawai Madhopur - RSPCB","27-03-2026 08:00:00",26.031443,76.359327,SO2,4,18,7
India,Rajasthan,Kota,"Dhanmandi, Kota - RSPCB","27-03-2026 08:00:00",25.164090,75.858137,PM10,44,164,102
India,Rajasthan,Kota,"Dhanmandi, Kota - RSPCB","27-03-2026 08:00:00",25.164090,75.858137,NH3,5,11,8
India,Rajasthan,Kota,"Dhanmandi, Kota - RSPCB","27-03-2026 08:00:00",25.164090,75.858137,SO2,3,57,13
India,Rajasthan,Sikar,"Radhakishan Pura, Sikar - RSPCB","27-03-2026 08:00:00",27.608912,75.153302,SO2,3,10,5
India,Rajasthan,Kota,"Nayapura, Kota - RSPCB","27-03-2026 08:00:00",25.196024,75.855668,OZONE,10,187,31
India,Uttar_Pradesh,Agra,"Shastripuram, Agra - UPPCB","27-03-2026 08:00:00",27.19862,77.92066,PM10,35,312,108
India,Uttar_Pradesh,Agra,"Shastripuram, Agra - UPPCB","27-03-2026 08:00:00",27.19862,77.92066,OZONE,12,15,14
India,Uttar_Pradesh,Baghpat,"Sardar Patel Inter College, Baghpat - UPPCB","27-03-2026 08:00:00",28.964949,77.278761,PM2.5,19,260,83
India,Uttar_Pradesh,Bareilly,"Civil Lines, Bareilly - UPPCB","27-03-2026 08:00:00",28.359581,79.414455,NO2,2,3,2
India,Uttar_Pradesh,Bareilly,"Civil Lines, Bareilly - UPPCB","27-03-2026 08:00:00",28.359581,79.414455,SO2,70,101,87
India,Uttar_Pradesh,Bareilly,"Rajendra Nagar, Bareilly - UPPCB","27-03-2026 08:00:00",28.38910936,79.42963708,SO2,38,45,41
India,Uttar_Pradesh,Bareilly,"Rajendra Nagar, Bareilly - UPPCB","27-03-2026 08:00:00",28.38910936,79.42963708,OZONE,NA,NA,NA
India,Uttar_Pradesh,Bulandshahr,"Yamunapuram, Bulandshahr - UPPCB","27-03-2026 08:00:00",28.406963,77.849831,PM2.5,59,210,136
India,Uttar_Pradesh,Bulandshahr,"Yamunapuram, Bulandshahr - UPPCB","27-03-2026 08:00:00",28.406963,77.849831,NH3,7,12,9
India,Telangana,Hyderabad,"Zoo Park, Hyderabad - TSPCB","27-03-2026 08:00:00",17.349694,78.451437,OZONE,22,29,24
India,Tripura,Agartala,"Bardowali, Agartala - Tripura SPCB","27-03-2026 08:00:00",23.8175497,91.2726974,PM2.5,76,294,183
India,Uttar_Pradesh,Agra,"Manoharpur, Agra - UPPCB","27-03-2026 08:00:00",27.23711,78.01936,OZONE,6,6,6
India,Uttar_Pradesh,Agra,"Rohta, Agra - UPPCB","27-03-2026 08:00:00",27.106972,78.000111,PM2.5,28,240,73
India,Uttar_Pradesh,Agra,"Rohta, Agra - UPPCB","27-03-2026 08:00:00",27.106972,78.000111,PM10,55,177,115
India,Uttar_Pradesh,Agra,"Sanjay Palace, Agra - UPPCB","27-03-2026 08:00:00",27.19865833,78.00598056,PM2.5,22,205,81
India,Uttar_Pradesh,Agra,"Sector-3B Avas Vikas Colony, Agra - UPPCB","27-03-2026 08:00:00",27.19412,77.96237,NH3,8,8,8
India,TamilNadu,Chennai,"Perungudi, Chennai - TNPCB","27-03-2026 08:00:00",12.9533,80.2357,NH3,NA,NA,NA
India,TamilNadu,Chennai,"Royapuram, Chennai - TNPCB","27-03-2026 08:00:00",13.1036,80.2909,PM2.5,17,98,42
India,TamilNadu,Chennai,"Velachery Res. Area, Chennai - CPCB","27-03-2026 08:00:00",13.0052189,80.2398125,NO2,12,15,13
India,TamilNadu,Coimbatore,"PSG College of Arts and Science, Coimbatore - TNPCB","27-03-2026 08:00:00",11.0328,77.0349,OZONE,NA,NA,NA
India,TamilNadu,Coimbatore,"SIDCO Kurichi, Coimbatore - TNPCB","27-03-2026 08:00:00",10.942451,76.978996,CO,30,59,42
India,TamilNadu,Coimbatore,"SIDCO Kurichi, Coimbatore - TNPCB","27-03-2026 08:00:00",10.942451,76.978996,OZONE,20,20,20
India,TamilNadu,Perundurai,"SIPCOT Industrial Park, Perundurai - TNPCB","27-03-2026 08:00:00",11.258242,77.552761,NO2,NA,NA,NA
India,TamilNadu,Perundurai,"SIPCOT Industrial Park, Perundurai - TNPCB","27-03-2026 08:00:00",11.258242,77.552761,SO2,NA,NA,NA
India,Rajasthan,Tonk,"Shastri Nagar, Tonk - RSPCB","27-03-2026 08:00:00",26.159933,75.780517,OZONE,4,134,23
India,Rajasthan,Udaipur,"Ashok Nagar, Udaipur - RSPCB","27-03-2026 08:00:00",24.5886166,73.6321397,NO2,13,86,50
India,Rajasthan,Udaipur,"Ashok Nagar, Udaipur - RSPCB","27-03-2026 08:00:00",24.5886166,73.6321397,CO,2,37,7
India,Sikkim,Gangtok,"Zero Point GICI, Gangtok - SSPCB","27-03-2026 08:00:00",27.338530,88.614099,CO,4,12,4
India,TamilNadu,Chennai,"Kodungaiyur, Chennai - TNPCB","27-03-2026 08:00:00",13.1278,80.2642,NH3,4,6,4
India,TamilNadu,Chennai,"Manali, Chennai - CPCB","27-03-2026 08:00:00",13.164544,80.26285,PM10,42,76,56
India,TamilNadu,Chennai,"Manali, Chennai - CPCB","27-03-2026 08:00:00",13.164544,80.26285,NO2,14,26,19
India,TamilNadu,Chennai,"Manali, Chennai - CPCB","27-03-2026 08:00:00",13.164544,80.26285,NH3,7,8,7
India,Telangana,Hyderabad,"ICRISAT Patancheru, Hyderabad - TSPCB","27-03-2026 08:00:00",17.518400,78.278777,NO2,4,25,12
India,Telangana,Hyderabad,"ICRISAT Patancheru, Hyderabad - TSPCB","27-03-2026 08:00:00",17.518400,78.278777,NH3,1,6,3
India,Telangana,Hyderabad,"IDA Pashamylaram, Hyderabad - TSPCB","27-03-2026 08:00:00",17.5316895,78.218939,PM2.5,69,162,91
India,Telangana,Hyderabad,"IITH Kandi, Hyderabad - TSPCB","27-03-2026 08:00:00",17.585705,78.126199,PM2.5,47,77,59
India,Telangana,Hyderabad,"IITH Kandi, Hyderabad - TSPCB","27-03-2026 08:00:00",17.585705,78.126199,SO2,11,16,12
India,Telangana,Hyderabad,"Kokapet, Hyderabad - TSPCB","27-03-2026 08:00:00",17.393559,78.339194,PM10,74,107,89
India,Telangana,Hyderabad,"Kokapet, Hyderabad - TSPCB","27-03-2026 08:00:00",17.393559,78.339194,NO2,12,16,14
India,Telangana,Hyderabad,"Kompally Municipal Office, Hyderabad - TSPCB","27-03-2026 08:00:00",17.544899,78.486949,NH3,2,5,4
India,Telangana,Hyderabad,"Nacharam_TSIIC IALA, Hyderabad - TSPCB","27-03-2026 08:00:00",17.429398,78.569354,CO,21,32,28
India,Telangana,Hyderabad,"New Malakpet, Hyderabad - TSPCB","27-03-2026 08:00:00",17.37206,78.50864,NH3,3,4,3
India,Telangana,Hyderabad,"New Malakpet, Hyderabad - TSPCB","27-03-2026 08:00:00",17.37206,78.50864,CO,23,45,24
India,Telangana,Hyderabad,"New Malakpet, Hyderabad - TSPCB","27-03-2026 08:00:00",17.37206,78.50864,OZONE,11,45,18
India,Telangana,Hyderabad,"Ramachandrapuram, Hyderabad - TSPCB","27-03-2026 08:00:00",17.528544,78.286195,PM10,60,85,67
India,Telangana,Hyderabad,"Ramachandrapuram, Hyderabad - TSPCB","27-03-2026 08:00:00",17.528544,78.286195,SO2,7,13,11
India,Telangana,Hyderabad,"Ramachandrapuram, Hyderabad - TSPCB","27-03-2026 08:00:00",17.528544,78.286195,CO,27,49,45
India,Telangana,Hyderabad,"Zoo Park, Hyderabad - TSPCB","27-03-2026 08:00:00",17.349694,78.451437,PM10,38,149,100
India,TamilNadu,Perundurai,"SIPCOT Industrial Park, Perundurai - TNPCB","27-03-2026 08:00:00",11.258242,77.552761,OZONE,NA,NA,NA
India,TamilNadu,Thoothukudi,"Meelavittan, Thoothukudi - TNPCB","27-03-2026 08:00:00","8.816428 ",78.099039,NO2,12,21,16
India,TamilNadu,Thoothukudi,"Meelavittan, Thoothukudi - TNPCB","27-03-2026 08:00:00","8.816428 ",78.099039,SO2,8,20,14
India,Telangana,Hyderabad,"Central University, Hyderabad - TSPCB","27-03-2026 08:00:00",17.460103,78.334361,NO2,1,32,19
India,Telangana,Hyderabad,"Central University, Hyderabad - TSPCB","27-03-2026 08:00:00",17.460103,78.334361,CO,10,53,20
India,Uttar_Pradesh,Firozabad,"Vibhab Nagar, Firozabad - UPPCB","27-03-2026 08:00:00",27.1594,78.3953,PM2.5,31,174,70
India,Uttar_Pradesh,Ghaziabad,"Loni, Ghaziabad - UPPCB","27-03-2026 08:00:00",28.757294,77.278792,PM10,136,425,244
India,Uttar_Pradesh,Ghaziabad,"Loni, Ghaziabad - UPPCB","27-03-2026 08:00:00",28.757294,77.278792,NH3,2,7,4
India,Uttar_Pradesh,Ghaziabad,"Loni, Ghaziabad - UPPCB","27-03-2026 08:00:00",28.757294,77.278792,OZONE,9,98,14
India,Uttar_Pradesh,Ghaziabad,"Sanjay Nagar, Ghaziabad - UPPCB","27-03-2026 08:00:00",28.685382,77.453839,PM10,96,295,153
India,Uttar_Pradesh,Ghaziabad,"Sanjay Nagar, Ghaziabad - UPPCB","27-03-2026 08:00:00",28.685382,77.453839,SO2,14,53,26
India,Uttar_Pradesh,Ghaziabad,"Sanjay Nagar, Ghaziabad - UPPCB","27-03-2026 08:00:00",28.685382,77.453839,CO,8,66,32
India,Uttar_Pradesh,Ghaziabad,"Vasundhara, Ghaziabad - UPPCB","27-03-2026 08:00:00",28.6603346,77.3572563,OZONE,6,246,17
India,Uttar_Pradesh,Gorakhpur,"Madan Mohan Malaviya University of Technology, Gorakhpur - UPPCB","27-03-2026 08:00:00",26.730136,83.433859,NO2,11,12,11
India,Uttar_Pradesh,"Greater Noida","Knowledge Park - V, Greater Noida - UPPCB","27-03-2026 08:00:00",28.557054,77.453663,PM2.5,NA,NA,NA
India,Uttar_Pradesh,Moradabad,"Transport Nagar, Moradabad - UPPCB","27-03-2026 08:00:00",28.802625,78.753728,SO2,43,52,45
India,Uttar_Pradesh,Moradabad,"Transport Nagar, Moradabad - UPPCB","27-03-2026 08:00:00",28.802625,78.753728,CO,90,110,90
India,Uttar_Pradesh,Muzaffarnagar,"New Mandi, Muzaffarnagar - UPPCB","27-03-2026 08:00:00",29.4723508,77.7194031,NH3,6,11,9
India,Uttar_Pradesh,Muzaffarnagar,"New Mandi, Muzaffarnagar - UPPCB","27-03-2026 08:00:00",29.4723508,77.7194031,CO,10,60,28
India,Uttar_Pradesh,Noida,"Sector - 125, Noida - UPPCB","27-03-2026 08:00:00",28.5447608,77.3231257,NO2,16,92,56
India,Uttar_Pradesh,Noida,"Sector - 125, Noida - UPPCB","27-03-2026 08:00:00",28.5447608,77.3231257,OZONE,16,174,22
India,Uttar_Pradesh,Noida,"Sector - 62, Noida - IMD","27-03-2026 08:00:00",28.6245479,77.3577104,PM10,99,264,143
India,Uttar_Pradesh,Noida,"Sector-1, Noida - UPPCB","27-03-2026 08:00:00",28.5898,77.3101,NO2,84,137,102
India,Uttar_Pradesh,Lucknow,"Talkatora District Industries Center, Lucknow - CPCB","27-03-2026 08:00:00",26.83399722,80.8917361,CO,15,46,23
India,Uttar_Pradesh,Meerut,"Ganga Nagar, Meerut - UPPCB","27-03-2026 08:00:00",28.999264,77.7590354,PM10,70,191,114
India,Uttar_Pradesh,Meerut,"Ganga Nagar, Meerut - UPPCB","27-03-2026 08:00:00",28.999264,77.7590354,NH3,3,4,3
India,Uttar_Pradesh,Meerut,"Ganga Nagar, Meerut - UPPCB","27-03-2026 08:00:00",28.999264,77.7590354,CO,35,67,48
India,Uttar_Pradesh,Meerut,"Jai Bhim Nagar, Meerut - UPPCB","27-03-2026 08:00:00",28.9535882,77.7622941,PM2.5,12,228,65
India,Uttar_Pradesh,Meerut,"Jai Bhim Nagar, Meerut - UPPCB","27-03-2026 08:00:00",28.9535882,77.7622941,PM10,72,190,113
India,Uttar_Pradesh,Meerut,"Pallavpuram Phase 2, Meerut - UPPCB","27-03-2026 08:00:00",29.063510,77.709723,PM2.5,41,203,93
India,Uttar_Pradesh,Meerut,"Pallavpuram Phase 2, Meerut - UPPCB","27-03-2026 08:00:00",29.063510,77.709723,SO2,7,36,15
India,Uttar_Pradesh,"Greater Noida","Knowledge Park - V, Greater Noida - UPPCB","27-03-2026 08:00:00",28.557054,77.453663,CO,24,160,68
India,Uttar_Pradesh,Hapur,"Anand Vihar, Hapur - UPPCB","27-03-2026 08:00:00",28.725645,77.749675,PM10,69,178,124
India,Uttar_Pradesh,Hapur,"Anand Vihar, Hapur - UPPCB","27-03-2026 08:00:00",28.725645,77.749675,NH3,7,11,8
India,Uttar_Pradesh,Jhansi,"Shivaji Nagar, Jhansi - UPPCB","27-03-2026 08:00:00",25.4547,78.6039,NH3,4,4,4
India,Uttar_Pradesh,Kanpur,"NSI Kalyanpur, Kanpur - UPPCB","27-03-2026 08:00:00",26.509954,80.249612,NO2,28,28,28
India,Uttar_Pradesh,Kanpur,"NSI Kalyanpur, Kanpur - UPPCB","27-03-2026 08:00:00",26.509954,80.249612,SO2,7,10,7
India,Uttar_Pradesh,Moradabad,"Eco Herbal Park, Moradabad - UPPCB","27-03-2026 08:00:00",28.840739,78.697531,PM10,32,147,95
India,Uttar_Pradesh,Moradabad,"Eco Herbal Park, Moradabad - UPPCB","27-03-2026 08:00:00",28.840739,78.697531,OZONE,15,61,17
India,Uttar_Pradesh,Moradabad,"Employment Office, Moradabad - UPPCB","27-03-2026 08:00:00",28.88528,78.73880,PM10,48,135,92
India,Uttar_Pradesh,Moradabad,"Employment Office, Moradabad - UPPCB","27-03-2026 08:00:00",28.88528,78.73880,NO2,15,16,16
India,Uttar_Pradesh,Lucknow,"Kukrail Picnic Spot-1, Lucknow - UPPCB","27-03-2026 08:00:00",26.90723,80.98579,NH3,6,6,6
India,Uttar_Pradesh,Lucknow,"Lalbagh, Lucknow - CPCB","27-03-2026 08:00:00",26.8458805,80.9365541,NH3,14,21,17
India,Uttar_Pradesh,Ghaziabad,"Indirapuram, Ghaziabad - UPPCB","27-03-2026 08:00:00",28.646233,77.358075,PM2.5,62,352,152
India,Uttar_Pradesh,Ghaziabad,"Indirapuram, Ghaziabad - UPPCB","27-03-2026 08:00:00",28.646233,77.358075,NH3,15,24,17
India,Uttar_Pradesh,Lucknow,"Gomti Nagar, Lucknow - UPPCB","27-03-2026 08:00:00",26.868120,81.005119,NO2,9,11,10
India,Uttar_Pradesh,Prayagraj,"Motilal Nehru NIT, Prayagraj - UPPCB","27-03-2026 08:00:00",25.494,81.863,SO2,26,30,28
India,Uttar_Pradesh,Raebareli," Indira Nagar, Raebareli - NTPC Unchahar","27-03-2026 08:00:00",26.207781,81.245571,OZONE,21,144,33
India,Uttar_Pradesh,Varanasi,"Ardhali Bazar, Varanasi - UPPCB","27-03-2026 08:00:00",25.3505986,82.9083074,CO,2,33,14
India,Uttar_Pradesh,Varanasi,"Bhelupur, Varanasi - UPPCB","27-03-2026 08:00:00",25.301778,82.996789,CO,8,79,35
India,Uttar_Pradesh,Varanasi,"Bhelupur, Varanasi - UPPCB","27-03-2026 08:00:00",25.301778,82.996789,OZONE,5,24,9
India,Uttar_Pradesh,Varanasi,"IESD Banaras Hindu University, Varanasi - UPPCB","27-03-2026 08:00:00",25.262326,82.995408,NO2,2,3,2
India,Uttar_Pradesh,Varanasi,"IESD Banaras Hindu University, Varanasi - UPPCB","27-03-2026 08:00:00",25.262326,82.995408,OZONE,NA,NA,NA
India,Uttar_Pradesh,Varanasi,"Maldahiya, Varanasi - UPPCB","27-03-2026 08:00:00",25.32393,82.99687,PM2.5,18,70,38
India,Uttar_Pradesh,Varanasi,"Maldahiya, Varanasi - UPPCB","27-03-2026 08:00:00",25.32393,82.99687,CO,14,60,41
India,Uttar_Pradesh,Vrindavan,"Omex Eternity, Vrindavan - UPPCB","27-03-2026 08:00:00",27.5714090,77.6557570,OZONE,15,16,15
India,Uttarakhand,Dehradun,"Doon University, Dehradun - UKPCB","27-03-2026 08:00:00",30.269444,78.044167,SO2,1,2,1
India,Uttarakhand,Dehradun,"Doon University, Dehradun - UKPCB","27-03-2026 08:00:00",30.269444,78.044167,CO,3,4,4
India,West_Bengal,Asansol,"Asansol Court Area, Asansol - WBPCB","27-03-2026 08:00:00",23.685297,86.945968,PM2.5,79,231,154
India,West_Bengal,Asansol,"Asansol Court Area, Asansol - WBPCB","27-03-2026 08:00:00",23.685297,86.945968,PM10,68,148,112
India,West_Bengal,Asansol,"Evelyn Lodge, Asansol - WBPCB","27-03-2026 08:00:00",23.6979360,86.9443950,PM10,50,142,103
India,West_Bengal,Asansol,"Mahabir Colliery, Asansol - WBPCB","27-03-2026 08:00:00",23.6181830,87.1057180,PM10,32,158,102
India,West_Bengal,Asansol,"Mahabir Colliery, Asansol - WBPCB","27-03-2026 08:00:00",23.6181830,87.1057180,CO,8,101,56
India,West_Bengal,Asansol,"Trivenidevi Bhalotia College, Asansol - WBPCB","27-03-2026 08:00:00",23.616515,87.119133,PM2.5,35,166,90
India,West_Bengal,Barrackpore,"SVSPA Campus, Barrackpore - WBPCB","27-03-2026 08:00:00",22.7605581,88.3617589,PM2.5,56,144,83
India,West_Bengal,Barrackpore,"SVSPA Campus, Barrackpore - WBPCB","27-03-2026 08:00:00",22.7605581,88.3617589,NO2,14,31,19
India,West_Bengal,Durgapur,"Mahishkapur Road_B-Zone, Durgapur - WBPCB","27-03-2026 08:00:00",23.567923,87.306843,NO2,10,27,16
India,West_Bengal,Durgapur,"PCBL Residential Complex, Durgapur - WBPCB","27-03-2026 08:00:00",23.5087640,87.3544400,PM10,68,120,93
India,West_Bengal,Durgapur,"PCBL Residential Complex, Durgapur - WBPCB","27-03-2026 08:00:00",23.5087640,87.3544400,NO2,32,60,44
India,West_Bengal,Durgapur,"Womens College_City Center, Durgapur - WBPCB","27-03-2026 08:00:00",23.549395,87.300496,CO,22,68,44
India,West_Bengal,Haldia,"Priyambada Housing Estate, Haldia - WBPCB","27-03-2026 08:00:00",22.06047,88.109737,PM2.5,33,92,57
India,West_Bengal,Haldia,"Priyambada Housing Estate, Haldia - WBPCB","27-03-2026 08:00:00",22.06047,88.109737,CO,33,48,41
India,West_Bengal,Howrah,"Botanical Garden, Howrah - WBPCB","27-03-2026 08:00:00",22.554954,88.292568,NH3,NA,NA,NA
India,West_Bengal,Howrah,"Dasnagar, Howrah - WBPCB","27-03-2026 08:00:00",22.6025571,88.3105664,CO,16,53,19
India,West_Bengal,Howrah,"Dasnagar, Howrah - WBPCB","27-03-2026 08:00:00",22.6025571,88.3105664,OZONE,30,181,37
India,West_Bengal,Howrah,"Ghusuri, Howrah - WBPCB","27-03-2026 08:00:00",22.611968,88.347422,PM10,54,108,84
India,West_Bengal,Howrah,"Ghusuri, Howrah - WBPCB","27-03-2026 08:00:00",22.611968,88.347422,NO2,17,58,31
India,West_Bengal,Howrah,"Ghusuri, Howrah - WBPCB","27-03-2026 08:00:00",22.611968,88.347422,NH3,9,22,14
India,West_Bengal,Howrah,"Ghusuri, Howrah - WBPCB","27-03-2026 08:00:00",22.611968,88.347422,SO2,8,16,11
India,West_Bengal,Kolkata,"Ballygunge, Kolkata - WBPCB","27-03-2026 08:00:00",22.5367507,88.3638022,PM10,52,102,76
India,West_Bengal,Kolkata,"Ballygunge, Kolkata - WBPCB","27-03-2026 08:00:00",22.5367507,88.3638022,NO2,16,42,22
India,West_Bengal,Kolkata,"Ballygunge, Kolkata - WBPCB","27-03-2026 08:00:00",22.5367507,88.3638022,CO,3,30,6
India,West_Bengal,Kolkata,"Bidhannagar, Kolkata - WBPCB","27-03-2026 08:00:00",22.58157048,88.41002457,PM10,63,106,82
India,West_Bengal,Kolkata,"Bidhannagar, Kolkata - WBPCB","27-03-2026 08:00:00",22.58157048,88.41002457,CO,4,36,6
India,West_Bengal,Kolkata,"Fort William, Kolkata - WBPCB","27-03-2026 08:00:00",22.556640,88.342674,NH3,9,10,9
India,West_Bengal,Kolkata,"Jadavpur, Kolkata - WBPCB","27-03-2026 08:00:00",22.49929,88.36917,PM2.5,39,79,59
India,West_Bengal,Kolkata,"Jadavpur, Kolkata - WBPCB","27-03-2026 08:00:00",22.49929,88.36917,NO2,13,19,16
India,West_Bengal,Kolkata,"Jadavpur, Kolkata - WBPCB","27-03-2026 08:00:00",22.49929,88.36917,CO,16,22,18
India,West_Bengal,Kolkata,"Rabindra Bharati University, Kolkata - WBPCB","27-03-2026 08:00:00",22.627847,88.380669,PM10,57,110,79
India,West_Bengal,Kolkata,"Rabindra Sarobar, Kolkata - WBPCB","27-03-2026 08:00:00",22.51106,88.35142,NO2,27,111,46
India,West_Bengal,Kolkata,"Rabindra Sarobar, Kolkata - WBPCB","27-03-2026 08:00:00",22.51106,88.35142,CO,2,21,5
India,West_Bengal,Kolkata,"Rabindra Sarobar, Kolkata - WBPCB","27-03-2026 08:00:00",22.51106,88.35142,OZONE,10,46,11
India,West_Bengal,Kolkata,"Victoria, Kolkata - WBPCB","27-03-2026 08:00:00",22.5448082,88.3403691,PM10,49,77,64
India,West_Bengal,Kolkata,"Victoria, Kolkata - WBPCB","27-03-2026 08:00:00",22.5448082,88.3403691,CO,44,65,45
India,West_Bengal,Siliguri,"Ward-32 Bapupara, Siliguri - WBPCB","27-03-2026 08:00:00",26.6879226,88.4152495,CO,22,79,36
India,Andhra_Pradesh,Vijayawada,"Rajiv Nagar, Vijayawada - APPCB","27-03-2026 08:00:00",16.554731,80.649110,CO,28,41,32
India,Andhra_Pradesh,Visakhapatnam,"GVM Corporation, Visakhapatnam - APPCB","27-03-2026 08:00:00",17.72,83.3,NO2,11,67,42
India,Andhra_Pradesh,Visakhapatnam,"GVM Corporation, Visakhapatnam - APPCB","27-03-2026 08:00:00",17.72,83.3,CO,2,84,6
India,Assam,Byrnihat,"Central Academy for SFS, Byrnihat - PCBA","27-03-2026 08:00:00",26.071318,91.87488,PM2.5,66,281,113
India,Assam,Guwahati,"IITG, Guwahati - PCBA","27-03-2026 08:00:00",26.2028636,91.70046436,NO2,1,5,2
India,Assam,Guwahati,"IITG, Guwahati - PCBA","27-03-2026 08:00:00",26.2028636,91.70046436,OZONE,NA,NA,NA
India,Assam,Guwahati,"LGBI Airport, Guwahati - PCBA","27-03-2026 08:00:00",26.10887,91.589544,PM10,14,72,44
India,Assam,Guwahati,"LGBI Airport, Guwahati - PCBA","27-03-2026 08:00:00",26.10887,91.589544,SO2,6,19,13
India,Assam,Guwahati,"LGBI Airport, Guwahati - PCBA","27-03-2026 08:00:00",26.10887,91.589544,OZONE,7,15,10
India,Assam,Guwahati,"Railway Colony, Guwahati - PCBA","27-03-2026 08:00:00",26.181742,91.78063,PM2.5,42,317,128
India,Assam,Guwahati,"Railway Colony, Guwahati - PCBA","27-03-2026 08:00:00",26.181742,91.78063,SO2,1,12,5
India,Assam,Nagaon,"Christianpatty, Nagaon - PCBA","27-03-2026 08:00:00",26.349082,92.68449,NH3,4,4,4
India,Assam,Nagaon,"Christianpatty, Nagaon - PCBA","27-03-2026 08:00:00",26.349082,92.68449,OZONE,17,53,22
India,Assam,Nalbari,"Bata Chowk, Nalbari - PCBA","27-03-2026 08:00:00",26.446912,91.439057,NO2,14,16,14
India,Assam,Silchar,"Tarapur, Silchar - PCBA","27-03-2026 08:00:00",24.82827,92.79525,PM2.5,31,89,59
India,Assam,Silchar,"Tarapur, Silchar - PCBA","27-03-2026 08:00:00",24.82827,92.79525,NO2,26,32,29
India,Bihar,Araria,"Kharahiya Basti, Araria - BSPCB","27-03-2026 08:00:00",26.146529,87.454184,PM2.5,47,227,100
India,Andhra_Pradesh,Tirupati,"Vaikuntapuram, Tirupati - APPCB","27-03-2026 08:00:00",13.615387,79.409230,CO,22,29,24
India,Andhra_Pradesh,Tirupati,"Vaikuntapuram, Tirupati - APPCB","27-03-2026 08:00:00",13.615387,79.409230,OZONE,29,46,32
India,Andhra_Pradesh,Vijayawada,"HB Colony, Vijayawada - APPCB","27-03-2026 08:00:00",16.536107,80.594233,PM10,47,73,55
India,Andhra_Pradesh,Vijayawada,"Kanuru, Vijayawada - APPCB","27-03-2026 08:00:00",16.486692,80.699436,PM2.5,59,77,72
India,Andhra_Pradesh,Vijayawada,"Kanuru, Vijayawada - APPCB","27-03-2026 08:00:00",16.486692,80.699436,SO2,15,24,18
India,Andhra_Pradesh,Vijayawada,"Rajiv Gandhi Park, Vijayawada - APPCB","27-03-2026 08:00:00",16.509717,80.612222,NO2,19,29,23
India,Andhra_Pradesh,Vijayawada,"Rajiv Nagar, Vijayawada - APPCB","27-03-2026 08:00:00",16.554731,80.649110,PM2.5,36,65,42
India,Andhra_Pradesh,Vijayawada,"Rajiv Nagar, Vijayawada - APPCB","27-03-2026 08:00:00",16.554731,80.649110,NO2,19,26,23
India,Bihar,Hajipur,"Industrial Area, Hajipur - BSPCB","27-03-2026 08:00:00",25.697189,85.245900,NO2,17,40,26
India,Bihar,Hajipur,"Industrial Area, Hajipur - BSPCB","27-03-2026 08:00:00",25.697189,85.245900,OZONE,11,171,16
India,Bihar,Katihar,"Mirchaibari, Katihar - BSPCB","27-03-2026 08:00:00",25.560083,87.553265,PM10,41,160,102
India,Bihar,Katihar,"Mirchaibari, Katihar - BSPCB","27-03-2026 08:00:00",25.560083,87.553265,SO2,16,27,22
India,Bihar,Kishanganj,"SDM Office_Khagra, Kishanganj - BSPCB","27-03-2026 08:00:00",26.0881305,87.93840336,NH3,3,3,3
India,Bihar,Kishanganj,"SDM Office_Khagra, Kishanganj - BSPCB","27-03-2026 08:00:00",26.0881305,87.93840336,OZONE,32,35,33
India,Bihar,Manguraha,"Forest Rest House, Manguraha - BSPCB","27-03-2026 08:00:00",27.308328,84.531742,PM10,NA,NA,NA
India,Bihar,Aurangabad,"Gurdeo Nagar, Aurangabad - BSPCB","27-03-2026 08:00:00",24.75746,84.366208,NO2,7,8,8
India,Bihar,Aurangabad,"Gurdeo Nagar, Aurangabad - BSPCB","27-03-2026 08:00:00",24.75746,84.366208,NH3,1,2,1
India,Bihar,Begusarai,"Lohiyanagar, Begusarai - BSPCB","27-03-2026 08:00:00",25.42742023,86.13886079,NO2,9,15,13
India,Bihar,Bettiah,"Kamalnath Nagar, Bettiah - BSPCB","27-03-2026 08:00:00",26.80365,84.51954,NH3,1,1,1
India,Bihar,Bhagalpur,"DM Office_Kachari Chowk, Bhagalpur - BSPCB","27-03-2026 08:00:00",25.251013,86.989001,PM2.5,45,167,93
India,Bihar,Bhagalpur,"DM Office_Kachari Chowk, Bhagalpur - BSPCB","27-03-2026 08:00:00",25.251013,86.989001,SO2,10,101,60
India,Andhra_Pradesh,Kadapa,"Yerramukkapalli, Kadapa - APPCB","27-03-2026 08:00:00",14.465052,78.824187,PM2.5,42,84,66
India,Andhra_Pradesh,Kadapa,"Yerramukkapalli, Kadapa - APPCB","27-03-2026 08:00:00",14.465052,78.824187,PM10,45,78,64
India,Andhra_Pradesh,Machilipatnam,"Srinivas Nagar Colony, Machilipatnam - APPCB","27-03-2026 08:00:00",16.186555,81.13219,SO2,11,13,12
India,Andhra_Pradesh,Machilipatnam,"Srinivas Nagar Colony, Machilipatnam - APPCB","27-03-2026 08:00:00",16.186555,81.13219,CO,1,37,2
India,Andhra_Pradesh,Rajamahendravaram,"Anand Kala Kshetram, Rajamahendravaram - APPCB","27-03-2026 08:00:00",16.9872867,81.7363176,SO2,4,10,6
India,Bihar,Bhagalpur,"Mayaganj, Bhagalpur - BSPCB","27-03-2026 08:00:00",25.265194,87.012947,CO,80,96,89
India,Bihar,Buxar,"Charitra Van, Buxar - BSPCB","27-03-2026 08:00:00",25.567520,83.966379,NO2,9,10,9
India,Bihar,Gaya,"Kareemganj, Gaya - BSPCB","27-03-2026 08:00:00",24.792403,84.992416,PM10,91,360,166
India,Bihar,Gaya,"Kareemganj, Gaya - BSPCB","27-03-2026 08:00:00",24.792403,84.992416,NH3,1,4,2
India,Andhra_Pradesh,Eluru,"District Court, Eluru - APPCB","27-03-2026 08:00:00",16.711754,81.092095,PM10,32,66,49
India,Andhra_Pradesh,Eluru,"District Court, Eluru - APPCB","27-03-2026 08:00:00",16.711754,81.092095,OZONE,6,37,11
India,Andhra_Pradesh,Guntur,"Rajendra Nagar North, Guntur - APPCB","27-03-2026 08:00:00",16.316553,80.413302,NH3,4,6,5
India,Bihar,Araria,"Kharahiya Basti, Araria - BSPCB","27-03-2026 08:00:00",26.146529,87.454184,NO2,1,7,2
India,Bihar,Araria,"Kharahiya Basti, Araria - BSPCB","27-03-2026 08:00:00",26.146529,87.454184,SO2,NA,NA,NA
India,Bihar,Motihari,"Gandak Colony, Motihari - BSPCB","27-03-2026 08:00:00",26.63086,84.90051,NH3,3,3,3
India,Bihar,Munger,"Town Hall, Munger - BSPCB","27-03-2026 08:00:00",25.376776,86.471523,OZONE,8,10,10
India,Bihar,Muzaffarpur,"Buddha Colony, Muzaffarpur - BSPCB","27-03-2026 08:00:00",26.11442,85.39813,PM2.5,89,312,225
India,Bihar,Muzaffarpur,"Buddha Colony, Muzaffarpur - BSPCB","27-03-2026 08:00:00",26.11442,85.39813,PM10,97,140,122
India,Bihar,Muzaffarpur,"Buddha Colony, Muzaffarpur - BSPCB","27-03-2026 08:00:00",26.11442,85.39813,NO2,29,67,44
India,Bihar,Muzaffarpur,"MIT-Daudpur Kothi, Muzaffarpur - BSPCB","27-03-2026 08:00:00",26.1403345,85.3650192,SO2,3,16,11
India,Bihar,Muzaffarpur,"MIT-Daudpur Kothi, Muzaffarpur - BSPCB","27-03-2026 08:00:00",26.1403345,85.3650192,OZONE,6,63,54
India,Bihar,Muzaffarpur,"Muzaffarpur Collectorate, Muzaffarpur - BSPCB","27-03-2026 08:00:00",26.1209,85.3647,PM2.5,87,123,110
India,Bihar,Muzaffarpur,"Muzaffarpur Collectorate, Muzaffarpur - BSPCB","27-03-2026 08:00:00",26.1209,85.3647,CO,14,54,18
India,Bihar,Muzaffarpur,"Muzaffarpur Collectorate, Muzaffarpur - BSPCB","27-03-2026 08:00:00",26.1209,85.3647,OZONE,5,20,16
India,Chhattisgarh,Bhilai,"32Bungalows, Bhilai - CECB","27-03-2026 08:00:00",21.194815,81.314770,PM2.5,29,88,62
India,Chhattisgarh,Bhilai,"32Bungalows, Bhilai - CECB","27-03-2026 08:00:00",21.194815,81.314770,PM10,32,90,67
India,Chhattisgarh,Bhilai,"32Bungalows, Bhilai - CECB","27-03-2026 08:00:00",21.194815,81.314770,CO,13,53,46
India,Chhattisgarh,Bhilai,"Civic Center, Bhilai - Bhilai Steel Plant","27-03-2026 08:00:00",21.185571,81.343175,SO2,2,38,10
India,Chhattisgarh,Bhilai,"Hathkhoj, Bhilai - CECB","27-03-2026 08:00:00",21.224231,81.408350,PM2.5,20,108,49
India,Chhattisgarh,Bilaspur,"Mangala, Bilaspur - NTPC","27-03-2026 08:00:00",22.08815,82.13737,PM10,43,108,76
India,Chhattisgarh,Chhal,"Nawapara SECL Colony, Chhal - CECB","27-03-2026 08:00:00",22.118125,83.140608,PM10,39,152,93
India,Chhattisgarh,Chhal,"Nawapara SECL Colony, Chhal - CECB","27-03-2026 08:00:00",22.118125,83.140608,NH3,4,4,4
India,Bihar,Patna,"DRM Office Danapur, Patna - BSPCB","27-03-2026 08:00:00",25.586562,85.043586,PM10,57,404,133
India,Bihar,Patna,"DRM Office Danapur, Patna - BSPCB","27-03-2026 08:00:00",25.586562,85.043586,CO,28,93,54
India,Bihar,Patna,"IGSC Planetarium Complex, Patna - BSPCB","27-03-2026 08:00:00",25.610369,85.132568,SO2,6,15,11
India,Bihar,Patna,"Muradpur, Patna - BSPCB","27-03-2026 08:00:00",25.619651,85.147382,PM10,88,475,166
India,Bihar,Patna,"Muradpur, Patna - BSPCB","27-03-2026 08:00:00",25.619651,85.147382,NO2,4,14,6
India,Bihar,Patna,"Muradpur, Patna - BSPCB","27-03-2026 08:00:00",25.619651,85.147382,OZONE,15,98,23
India,Bihar,Patna,"Rajbansi Nagar, Patna - BSPCB","27-03-2026 08:00:00",25.599486,85.113666,PM10,40,201,98
India,Chhattisgarh,Korba,"Rampur, Korba - CECB","27-03-2026 08:00:00",22.368195,82.746431,NH3,1,1,1
India,Chhattisgarh,Korba,"Urja Nagar, Korba - CECB","27-03-2026 08:00:00",22.348441,82.549611,PM10,5,232,74
India,Chhattisgarh,Milupara,"Govt. Higher Secondary School, Milupara - CECB","27-03-2026 08:00:00",22.1910172,83.5197009,NH3,1,3,2
India,Chhattisgarh,Milupara,"Govt. Higher Secondary School, Milupara - CECB","27-03-2026 08:00:00",22.1910172,83.5197009,OZONE,2,138,10
India,Bihar,Saharsa,"Police Line, Saharsa - BSPCB","27-03-2026 08:00:00",25.892357,86.590325,PM2.5,10,319,95
India,Bihar,Saharsa,"Police Line, Saharsa - BSPCB","27-03-2026 08:00:00",25.892357,86.590325,PM10,36,331,121
India,Bihar,Samastipur,"DM Office_Kasipur, Samastipur - BSPCB","27-03-2026 08:00:00",25.859655,85.77944,NH3,1,1,1
India,Bihar,Samastipur,"DM Office_Kasipur, Samastipur - BSPCB","27-03-2026 08:00:00",25.859655,85.77944,CO,8,12,12
India,Bihar,Siwan,"Chitragupta Nagar, Siwan - BSPCB","27-03-2026 08:00:00",26.2271665,84.3570427,OZONE,12,13,12
India,Chandigarh,Chandigarh,"Sector 22, Chandigarh - CPCC","27-03-2026 08:00:00",30.735567,76.775714,PM10,17,57,36
India,Bihar,Patna,"Samanpura, Patna - BSPCB","27-03-2026 08:00:00",25.596727,85.085624,NO2,12,42,35
India,Bihar,Purnia,"Mariam Nagar, Purnia - BSPCB","27-03-2026 08:00:00",25.366336,87.117468,PM10,48,72,59
India,Bihar,Siwan,"Chitragupta Nagar, Siwan - BSPCB","27-03-2026 08:00:00",26.2271665,84.3570427,PM2.5,23,88,60
India,Bihar,Siwan,"Chitragupta Nagar, Siwan - BSPCB","27-03-2026 08:00:00",26.2271665,84.3570427,PM10,33,119,84
India,Bihar,Purnia,"Mariam Nagar, Purnia - BSPCB","27-03-2026 08:00:00",25.366336,87.117468,CO,54,58,56
India,Bihar,Purnia,"Mariam Nagar, Purnia - BSPCB","27-03-2026 08:00:00",25.366336,87.117468,OZONE,10,43,18
India,Delhi,Delhi,"Dr. Karni Singh Shooting Range, Delhi - DPCC","27-03-2026 08:00:00",28.498571,77.264840,CO,26,80,66
India,Delhi,Delhi,"Dwarka-Sector 8, Delhi - DPCC ","27-03-2026 08:00:00",28.5710274,77.0719006,PM2.5,18,353,155
India,Delhi,Delhi,"Dwarka-Sector 8, Delhi - DPCC ","27-03-2026 08:00:00",28.5710274,77.0719006,SO2,18,31,26
India,Delhi,Delhi,"Dwarka-Sector 8, Delhi - DPCC ","27-03-2026 08:00:00",28.5710274,77.0719006,OZONE,6,220,22
India,Delhi,Delhi,"IGNOU_Maidan Garhi, Delhi - DPCC","27-03-2026 08:00:00","28.493624 ","77.201159 ",PM2.5,15,336,124
India,Delhi,Delhi,"IHBAS, Dilshad Garden, Delhi - CPCB","27-03-2026 08:00:00",28.6811736,77.3025234,PM10,107,173,136
India,Delhi,Delhi,"IHBAS, Dilshad Garden, Delhi - CPCB","27-03-2026 08:00:00",28.6811736,77.3025234,NH3,2,17,9
India,Chhattisgarh,Tumidih,"OP Jindal Industrial Park, Tumidih - CECB","27-03-2026 08:00:00",22.06631475,83.33820077,PM2.5,30,98,65
India,Chhattisgarh,Tumidih,"OP Jindal Industrial Park, Tumidih - CECB","27-03-2026 08:00:00",22.06631475,83.33820077,CO,18,62,38
India,Delhi,Delhi,"Alipur, Delhi - DPCC","27-03-2026 08:00:00",28.815329,77.153010,CO,6,40,34
India,Delhi,Delhi,"Alipur, Delhi - DPCC","27-03-2026 08:00:00",28.815329,77.153010,OZONE,5,65,10
India,Delhi,Delhi,"Ashok Vihar, Delhi - DPCC","27-03-2026 08:00:00",28.695381,77.181665,NH3,6,7,7
India,Delhi,Delhi,"Bawana, Delhi - DPCC","27-03-2026 08:00:00",28.776200,77.051074,PM10,105,457,181
India,Delhi,Delhi,"Bawana, Delhi - DPCC","27-03-2026 08:00:00",28.776200,77.051074,OZONE,11,106,14
India,Delhi,Delhi,"Jahangirpuri, Delhi - DPCC","27-03-2026 08:00:00",28.732820,77.170633,CO,30,100,38
India,Delhi,Delhi,"Jahangirpuri, Delhi - DPCC","27-03-2026 08:00:00",28.732820,77.170633,OZONE,10,181,16
India,Delhi,Delhi,"Jawaharlal Nehru Stadium, Delhi - DPCC","27-03-2026 08:00:00",28.580280,77.233829,PM10,73,294,138
India,Delhi,Delhi,"Lodhi Road, Delhi - IMD","27-03-2026 08:00:00",28.5918245,77.2273074,PM2.5,4,278,106
India,Delhi,Delhi,"Lodhi Road, Delhi - IMD","27-03-2026 08:00:00",28.5918245,77.2273074,CO,14,50,28
India,Delhi,Delhi,"Mandir Marg, Delhi - DPCC","27-03-2026 08:00:00",28.636429,77.201067,PM10,89,174,119
India,Delhi,Delhi,"Mandir Marg, Delhi - DPCC","27-03-2026 08:00:00",28.636429,77.201067,NO2,31,85,54
India,Chhattisgarh,Raipur,"AIIMS, Raipur - CECB","27-03-2026 08:00:00",21.258815,81.578979,NO2,30,57,47
India,Chhattisgarh,Raipur,"Bhatagaon New ISBT, Raipur - CECB","27-03-2026 08:00:00",21.219665,81.630094,PM2.5,17,69,44
India,Chhattisgarh,Raipur,"Bhatagaon New ISBT, Raipur - CECB","27-03-2026 08:00:00",21.219665,81.630094,CO,26,86,64
India,Chhattisgarh,Raipur,"Bhatagaon New ISBT, Raipur - CECB","27-03-2026 08:00:00",21.219665,81.630094,OZONE,2,10,2
India,Chhattisgarh,Raipur,"Krishak Nagar, Raipur - CECB","27-03-2026 08:00:00",21.237755,81.705301,CO,20,34,30
India,Chhattisgarh,Raipur,"Siltara Phase-II, Raipur - CECB","27-03-2026 08:00:00",21.371751,81.664929,NH3,2,2,2
India,Delhi,Delhi,"Burari Crossing, Delhi - IMD","27-03-2026 08:00:00",28.7256504,77.2011573,OZONE,27,133,29
India,Delhi,Delhi,"Cantonment Area, Delhi - DPCC ","27-03-2026 08:00:00","28.594169 ","77.125100 ",NH3,2,16,4
India,Delhi,Delhi,"Chandni Chowk, Delhi - IITM","27-03-2026 08:00:00",28.656756,77.227234,PM10,130,330,176
India,Delhi,Delhi,"Chandni Chowk, Delhi - IITM","27-03-2026 08:00:00",28.656756,77.227234,NH3,7,13,9
India,Delhi,Delhi,"Mundka, Delhi - DPCC","27-03-2026 08:00:00",28.684678,77.076574,PM2.5,27,398,179
India,Delhi,Delhi,"Mundka, Delhi - DPCC","27-03-2026 08:00:00",28.684678,77.076574,CO,37,78,49
India,Delhi,Delhi,"NSIT Dwarka, Delhi - CPCB","27-03-2026 08:00:00",28.60909,77.0325413,PM10,101,294,179
India,Delhi,Delhi,"IIT Delhi, Delhi - IITM","27-03-2026 08:00:00",28.542460,77.191651,NO2,20,83,38
India,Delhi,Delhi,"ITO, Delhi - CPCB","27-03-2026 08:00:00",28.628624,77.241060,PM2.5,18,500,122
India,Delhi,Delhi,"ITO, Delhi - CPCB","27-03-2026 08:00:00",28.628624,77.241060,PM10,19,500,134
India,Delhi,Delhi,"Dr. Karni Singh Shooting Range, Delhi - DPCC","27-03-2026 08:00:00",28.498571,77.264840,NO2,6,82,38
India,Delhi,Delhi,"ITO, Delhi - CPCB","27-03-2026 08:00:00",28.628624,77.241060,OZONE,31,167,36
India,Gujarat,Ahmedabad,"SVPI Airport Hansol, Ahmedabad - IITM","27-03-2026 08:00:00",23.076793,72.627874,CO,18,68,27
India,Gujarat,Ankleshwar,"GIDC, Ankleshwar - GPCB","27-03-2026 08:00:00",21.613267,73.010555,PM2.5,49,106,80
India,Gujarat,Ankleshwar,"GIDC, Ankleshwar - GPCB","27-03-2026 08:00:00",21.613267,73.010555,PM10,70,116,96
India,Gujarat,Ankleshwar,"GIDC, Ankleshwar - GPCB","27-03-2026 08:00:00",21.613267,73.010555,SO2,18,26,20
India,Gujarat,Bhavnagar,"Vidhyanagar, Bhavnagar - Nexteng Enviro","27-03-2026 08:00:00",21.755417,72.139056,PM2.5,23,201,70
India,Gujarat,Bhavnagar,"Vidhyanagar, Bhavnagar - Nexteng Enviro","27-03-2026 08:00:00",21.755417,72.139056,SO2,7,56,15
India,Gujarat,Gandhinagar,"GIFT City, Gandhinagar - IITM","27-03-2026 08:00:00",23.163798,72.677768,PM2.5,26,85,51
India,Gujarat,Gandhinagar,"GIFT City, Gandhinagar - IITM","27-03-2026 08:00:00",23.163798,72.677768,NO2,15,53,29
India,Gujarat,Gandhinagar,"GIFT City, Gandhinagar - IITM","27-03-2026 08:00:00",23.163798,72.677768,NH3,5,9,7
India,Gujarat,Gandhinagar,"IIPHG Lekawada, Gandhinagar - IITM","27-03-2026 08:00:00",23.243639,72.68994,PM10,59,133,95
India,Delhi,Delhi,"Sirifort, Delhi - CPCB","27-03-2026 08:00:00",28.5504249,77.2159377,OZONE,7,38,8
India,Delhi,Delhi,"Sri Aurobindo Marg, Delhi - DPCC","27-03-2026 08:00:00",28.531346,77.190156,PM2.5,30,287,99
India,Delhi,Delhi,"Sri Aurobindo Marg, Delhi - DPCC","27-03-2026 08:00:00",28.531346,77.190156,PM10,45,216,114
India,Delhi,Delhi,"Sri Aurobindo Marg, Delhi - DPCC","27-03-2026 08:00:00",28.531346,77.190156,NO2,47,79,64
India,Delhi,Delhi,"Sri Aurobindo Marg, Delhi - DPCC","27-03-2026 08:00:00",28.531346,77.190156,OZONE,2,112,4
India,Delhi,Delhi,"Talkatora Garden, Delhi - DPCC","27-03-2026 08:00:00",28.621810,77.1944633,PM10,68,142,110
India,Delhi,Delhi,"Talkatora Garden, Delhi - DPCC","27-03-2026 08:00:00",28.621810,77.1944633,NO2,12,50,21
India,Delhi,Delhi,"Talkatora Garden, Delhi - DPCC","27-03-2026 08:00:00",28.621810,77.1944633,CO,105,110,107
India,Delhi,Delhi,"Vivek Vihar, Delhi - DPCC","27-03-2026 08:00:00",28.672342,77.315260,PM10,107,219,144
India,Delhi,Delhi,"Vivek Vihar, Delhi - DPCC","27-03-2026 08:00:00",28.672342,77.315260,NO2,22,77,42
India,Delhi,Delhi,"Vivek Vihar, Delhi - DPCC","27-03-2026 08:00:00",28.672342,77.315260,NH3,5,7,6
India,Delhi,Delhi,"Vivek Vihar, Delhi - DPCC","27-03-2026 08:00:00",28.672342,77.315260,CO,42,80,58
India,Delhi,Delhi,"Vivek Vihar, Delhi - DPCC","27-03-2026 08:00:00",28.672342,77.315260,OZONE,11,182,16
India,Delhi,Delhi,"Patparganj, Delhi - DPCC","27-03-2026 08:00:00",28.623763,77.287209,SO2,10,26,17
India,Delhi,Delhi,"Patparganj, Delhi - DPCC","27-03-2026 08:00:00",28.623763,77.287209,CO,28,100,62
India,Delhi,Delhi,"Patparganj, Delhi - DPCC","27-03-2026 08:00:00",28.623763,77.287209,OZONE,7,300,19
India,Delhi,Delhi,"Punjabi Bagh, Delhi - DPCC","27-03-2026 08:00:00",28.674045,77.131023,CO,43,76,46
India,Delhi,Delhi,"Pusa, Delhi - IMD","27-03-2026 08:00:00",28.636110,77.173332,OZONE,52,221,65
India,Delhi,Delhi,"R K Puram, Delhi - DPCC","27-03-2026 08:00:00",28.563262,77.186937,SO2,4,138,69
India,Delhi,Delhi,"R K Puram, Delhi - DPCC","27-03-2026 08:00:00",28.563262,77.186937,OZONE,2,120,6
India,Delhi,Delhi,"Rohini, Delhi - DPCC","27-03-2026 08:00:00",28.732528,77.119920,NO2,12,67,33
India,Delhi,Delhi,"Rohini, Delhi - DPCC","27-03-2026 08:00:00",28.732528,77.119920,CO,14,59,26
India,Delhi,Delhi,"Shadipur, Delhi - CPCB","27-03-2026 08:00:00",28.6514781,77.1473105,NO2,45,82,57
India,Delhi,Delhi,"Sirifort, Delhi - CPCB","27-03-2026 08:00:00",28.5504249,77.2159377,PM2.5,37,312,120
India,Gujarat,Ahmedabad,"Gyaspur, Ahmedabad - IITM","27-03-2026 08:00:00",22.977134,72.553024,NH3,2,17,6
India,Gujarat,Ahmedabad,"Gyaspur, Ahmedabad - IITM","27-03-2026 08:00:00",22.977134,72.553024,CO,26,102,45
India,Gujarat,Ahmedabad,"Raikhad, Ahmedabad - IITM","27-03-2026 08:00:00",23.020509,72.579261,PM10,57,500,151
India,Gujarat,Ahmedabad,"Rakhial, Ahmedabad - IITM","27-03-2026 08:00:00",23.016834,72.625775,NH3,7,14,10
India,Delhi,Delhi,"NSUT Jaffarpur, Delhi - DPCC","27-03-2026 08:00:00","28.594004 ","76.909423 ",SO2,72,81,76
India,Delhi,Delhi,"Najafgarh, Delhi - DPCC","27-03-2026 08:00:00",28.570173,76.933762,PM2.5,18,320,141
India,Delhi,Delhi,"Narela, Delhi - DPCC","27-03-2026 08:00:00",28.822836,77.101981,SO2,10,39,20
India,Delhi,Delhi,"Nehru Nagar, Delhi - DPCC","27-03-2026 08:00:00",28.567890,77.250515,SO2,13,73,23
India,Gujarat,Ahmedabad,"SAC ISRO Bopal, Ahmedabad - IITM","27-03-2026 08:00:00",23.041137,72.456691,NO2,5,48,17
India,Gujarat,Ahmedabad,"SAC ISRO Bopal, Ahmedabad - IITM","27-03-2026 08:00:00",23.041137,72.456691,SO2,6,10,8
India,Gujarat,Gandhinagar,"Sector-10, Gandhinagar - GPCB","27-03-2026 08:00:00",23.221714,72.654328,SO2,NA,NA,NA
India,Gujarat,Gandhinagar,"Sector-10, Gandhinagar - GPCB","27-03-2026 08:00:00",23.221714,72.654328,OZONE,4,29,8
India,Gujarat,Mehsana,"Sadanand Nagar, Mehsana - Nexteng Enviro","27-03-2026 08:00:00",23.593150,72.372792,PM2.5,17,189,60
India,Gujarat,Mehsana,"Sadanand Nagar, Mehsana - Nexteng Enviro","27-03-2026 08:00:00",23.593150,72.372792,PM10,65,153,108
India,Gujarat,Mehsana,"Sadanand Nagar, Mehsana - Nexteng Enviro","27-03-2026 08:00:00",23.593150,72.372792,SO2,4,11,6
India,Gujarat,Nandesari,"GIDC, Nandesari - Nandesari Ind. Association","27-03-2026 08:00:00",22.410802,73.097923,PM10,64,227,126
India,Gujarat,Surat,"Katargam, Surat - Nexteng Enviro","27-03-2026 08:00:00","21.217779 ","72.834787 ",PM10,60,137,104
India,Gujarat,Surat,"Science Center, Surat - SMC","27-03-2026 08:00:00",21.170046,72.795405,SO2,21,33,24
India,Gujarat,Vadodara,"Bapunagar, Vadodara - Nexteng Enviro","27-03-2026 08:00:00",22.320153,73.216285,PM10,45,125,90
India,Gujarat,Vadodara,"Bapunagar, Vadodara - Nexteng Enviro","27-03-2026 08:00:00",22.320153,73.216285,NO2,2,23,9
India,Haryana,Kurukshetra,"Sector-7, Kurukshetra - HSPCB","27-03-2026 08:00:00",29.966942,76.875879,NO2,4,4,4
India,Haryana,Kurukshetra,"Sector-7, Kurukshetra - HSPCB","27-03-2026 08:00:00",29.966942,76.875879,NH3,6,7,6
India,Haryana,Kurukshetra,"Sector-7, Kurukshetra - HSPCB","27-03-2026 08:00:00",29.966942,76.875879,OZONE,20,72,26
India,Haryana,Mandikhera,"General Hospital, Mandikhera(Nuh) - HSPCB","27-03-2026 08:00:00",27.9002,76.9938,PM10,38,147,78
India,Haryana,Mandikhera,"General Hospital, Mandikhera(Nuh) - HSPCB","27-03-2026 08:00:00",27.9002,76.9938,NH3,12,15,13
India,Haryana,Manesar,"Sector-2 IMT, Manesar - HSPCB","27-03-2026 08:00:00",28.360699,76.936090,PM10,48,182,93
India,Haryana,Manesar,"Sector-2 IMT, Manesar - HSPCB","27-03-2026 08:00:00",28.360699,76.936090,NO2,33,41,37
India,Haryana,Narnaul,"Shastri Nagar, Narnaul - HSPCB","27-03-2026 08:00:00",28.060249,76.113115,PM2.5,64,201,96
India,Haryana,Palwal,"Shyam Nagar, Palwal - HSPCB","27-03-2026 08:00:00",28.1485564,77.3320667,PM2.5,64,91,74
India,Haryana,Palwal,"Shyam Nagar, Palwal - HSPCB","27-03-2026 08:00:00",28.1485564,77.3320667,NO2,23,24,24
India,Haryana,Palwal,"Shyam Nagar, Palwal - HSPCB","27-03-2026 08:00:00",28.1485564,77.3320667,OZONE,8,16,8
India,Haryana,"Charkhi Dadri","Mini Secretariat, Charkhi Dadri - HSPCB","27-03-2026 08:00:00",28.593883,76.270653,SO2,NA,NA,NA
India,Haryana,"Charkhi Dadri","Mini Secretariat, Charkhi Dadri - HSPCB","27-03-2026 08:00:00",28.593883,76.270653,CO,68,112,87
India,Haryana,"Charkhi Dadri","Mini Secretariat, Charkhi Dadri - HSPCB","27-03-2026 08:00:00",28.593883,76.270653,OZONE,14,17,15
India,Haryana,Dharuhera,"Municipal Corporation Office, Dharuhera -  HSPCB","27-03-2026 08:00:00",28.206800,76.799700,CO,52,54,53
India,Haryana,Faridabad,"Sector 11, Faridabad - HSPCB","27-03-2026 08:00:00",28.376058,77.315741,PM10,59,428,208
India,Haryana,Faridabad,"Sector 11, Faridabad - HSPCB","27-03-2026 08:00:00",28.376058,77.315741,SO2,2,3,3
India,Haryana,Faridabad,"Sector 30, Faridabad - HSPCB","27-03-2026 08:00:00",28.4417,77.3217,PM2.5,112,115,113
